[
  {
    "mountain": "Mount Everest",
    "metres": "8848",
    "metresSearchable": "8848",
    "feet": "29029",
    "range": "Himalayas",
    "locationAndNotes": "Nepal/China",
    "latitude": 27.9878675,
    "longitude": 86.9248308,
    "mainCountry": "Nepal",
    "formattedAddress": "珠穆朗玛峰 - सगरमाथा चुचुरो, Khumjung, सोलुखुम्बु, सगरमाथा अञ्चल, पुर्वाञ्चल विकास क्षेत्र, नेपाल",
    "rating": 0.0,
    "votes": 0
  },
  {
    "mountain": "K2",
    "metres": "8611",
    "metresSearchable": "8611",
    "feet": "28251",
    "range": "Karakoram",
    "locationAndNotes": "India – Highest in India",
    "latitude": 35.8818694,
    "longitude": 76.513741,
    "mainCountry": "Pakistan",
    "formattedAddress": "K2, Baltistān District, گلگت بلتستان, پاکستان",
    "rating": 0.0,
    "votes": 0
  },
  {
    "mountain": "Kangchenjunga",
    "metres": "8586",
    "metresSearchable": "8586",
    "feet": "28169",
    "range": "Himalayas",
    "locationAndNotes": "Nepal/India",
    "latitude": 27.7026008,
    "longitude": 88.1483408,
    "mainCountry": "India",
    "formattedAddress": "Kangchenjunga, Chungthang, North Sikkim District, Sikkim, India",
    "rating": 0.0,
    "votes": 0
  },
  {
    "mountain": "Lhotse",
    "metres": "8516",
    "metresSearchable": "8516",
    "feet": "27940",
    "range": "Himalayas",
    "locationAndNotes": "Nepal/China – Climbers ascend Lhotse Face in climbing Everest",
    "latitude": 27.9587111,
    "longitude": 86.9437467,
    "mainCountry": "Nepal",
    "formattedAddress": "Lhotse Shar, Khumjung, सोलुखुम्बु, सगरमाथा अञ्चल, पुर्वाञ्चल विकास क्षेत्र, नेपाल",
    "rating": 0.0,
    "votes": 0
  },
  {
    "mountain": "Makalu",
    "metres": "8485",
    "metresSearchable": "8485",
    "feet": "27838",
    "range": "Himalayas",
    "locationAndNotes": "Nepal/China",
    "latitude": 27.8911991,
    "longitude": 87.0886361,
    "mainCountry": "China",
    "formattedAddress": "मकालु 马卡鲁山 Makalu, དིང་རི་རྫོང་ / 定日县 / Tingri, གཞིས་ཀ་རྩེ་ས་ཁུལ་ / 日喀则市 / Shigatse, 西藏自治区, China 中国",
    "rating": 0.0,
    "votes": 0
  },
  {
    "mountain": "Cho Oyu",
    "metres": "8201",
    "metresSearchable": "8201",
    "feet": "26906",
    "range": "Himalayas",
    "locationAndNotes": "Nepal/China – Considered \"easiest\" eight-thousander",
    "latitude": 28.0967613,
    "longitude": 86.659654,
    "mainCountry": "China",
    "formattedAddress": "चोयु ཇོ་བོ་དབུ་ཡ 卓奧有山 Cho Oyu, 扎西宗乡, དིང་རི་རྫོང་ / 定日县 / Tingri, གཞིས་ཀ་རྩེ་ས་ཁུལ་ / 日喀则市 / Shigatse, 西藏自治区, China 中国",
    "rating": 0.0,
    "votes": 0
  },
  {
    "mountain": "Dhaulagiri",
    "metres": "8167",
    "metresSearchable": "8167",
    "feet": "26795",
    "range": "Himalayas",
    "locationAndNotes": "Nepal – Presumed world's highest from 1808-1838",
    "latitude": 28.6976088,
    "longitude": 83.4894884,
    "mainCountry": "Nepal",
    "formattedAddress": "Dhaulagiri, Mudi, म्याग्दी (Myagdi), धौलागिरी अञ्चल, पश्चिमाञ्चल विकास क्षेत्र, नेपाल",
    "rating": 0.0,
    "votes": 0
  },
  {
    "mountain": "Manaslu",
    "metres": "8163",
    "metresSearchable": "8163",
    "feet": "26781",
    "range": "Himalayas",
    "locationAndNotes": "Nepal",
    "latitude": 28.5499829,
    "longitude": 84.5597284,
    "mainCountry": "Nepal",
    "formattedAddress": "मनास्लु, Samagau, गोरखा (Gorkha), गण्डकी अञ्चल, पश्चिमाञ्चल विकास क्षेत्र, नेपाल",
    "rating": 0.0,
    "votes": 0
  },
  {
    "mountain": "Nanga Parbat",
    "metres": "8126",
    "metresSearchable": "8126",
    "feet": "26660",
    "range": "Himalayas",
    "locationAndNotes": "Pakistan",
    "latitude": 35.2384621,
    "longitude": 74.5895446,
    "mainCountry": "Pakistan",
    "formattedAddress": "Nanga Parbat, Diāmir District, گلگت بلتستان, پاکستان",
    "rating": 0.0,
    "votes": 0
  },
  {
    "mountain": "Annapurna",
    "metres": "8091",
    "metresSearchable": "8091",
    "feet": "26545",
    "range": "Himalayas",
    "locationAndNotes": "Nepal – First eight-thousander to be climbed (1950)",
    "latitude": 28.5962553,
    "longitude": 83.8270789,
    "mainCountry": "Nepal",
    "formattedAddress": "अन्नपूर्ण, Ghandruk, कास्की, गण्डकी अञ्चल, पश्चिमाञ्चल विकास क्षेत्र, नेपाल",
    "rating": 0.0,
    "votes": 0
  },
  {
    "mountain": "Gasherbrum I",
    "metres": "8080",
    "metresSearchable": "8080",
    "feet": "26509",
    "range": "Karakoram",
    "locationAndNotes": "Pakistan/China – Originally named K5",
    "latitude": 35.7246797,
    "longitude": 76.697623,
    "mainCountry": "Pakistan",
    "formattedAddress": "Gasherbrum I, Baltistān District, گلگت بلتستان, پاکستان",
    "rating": 0.0,
    "votes": 0
  },
  {
    "mountain": "Broad Peak",
    "metres": "8051",
    "metresSearchable": "8051",
    "feet": "26414",
    "range": "Karakoram",
    "locationAndNotes": "Pakistan/China – Originally named K3",
    "latitude": 35.8142697,
    "longitude": 76.5661116,
    "mainCountry": "China",
    "formattedAddress": "Broad Peak, 喀喇昆仑走廊 (Trans-Karakoram Tract), 塔什库尔干县, قەشقەر ۋىلايىتى 喀什地区 Kashgar, 新疆维吾尔自治区, 中国",
    "rating": 0.0,
    "votes": 0
  },
  {
    "mountain": "Gasherbrum II",
    "metres": "8035",
    "metresSearchable": "8035",
    "feet": "26362",
    "range": "Karakoram",
    "locationAndNotes": "Pakistan/China – Originally named K4",
    "latitude": 35.7577323,
    "longitude": 76.6532687,
    "mainCountry": "China",
    "formattedAddress": "Gasherbrum II, 喀喇昆仑走廊 (Trans-Karakoram Tract), 塔什库尔干县, قەشقەر ۋىلايىتى 喀什地区 Kashgar, 新疆维吾尔自治区, 中国",
    "rating": 0.0,
    "votes": 0
  },
  {
    "mountain": "Shishapangma",
    "metres": "8027",
    "metresSearchable": "8027",
    "feet": "26335",
    "range": "Himalayas",
    "locationAndNotes": "China",
    "latitude": 28.3553668,
    "longitude": 85.7782824,
    "mainCountry": "China",
    "formattedAddress": "ཤིས་ས་སྤང་མ། 希夏幫馬峰 Shishapangma, 聂拉木县, གཉའ་ལམ་རྫོང་ / 聂拉木县 / Nyalam, གཞིས་ཀ་རྩེ་ས་ཁུལ་ / 日喀则市 / Shigatse, 西藏自治区, China 中国",
    "rating": 0.0,
    "votes": 0
  },
  {
    "mountain": "Gasherbrum III",
    "metres": "7952",
    "metresSearchable": "7952",
    "feet": "26089",
    "range": "Karakoram",
    "locationAndNotes": "Pakistan",
    "latitude": 35.759734,
    "longitude": 76.6419462,
    "mainCountry": "Pakistan",
    "formattedAddress": "Gasherbrum III, Baltistān District, گلگت بلتستان, پاکستان",
    "rating": 0.0,
    "votes": 0
  },
  {
    "mountain": "Gyachung Kang",
    "metres": "7952",
    "metresSearchable": "7952",
    "feet": "26089",
    "range": "Himalayas",
    "locationAndNotes": "Nepal (Khumbu)/China",
    "latitude": 28.0980314,
    "longitude": 86.7448435,
    "mainCountry": "Nepal",
    "formattedAddress": "ग्याचुङ काङ 格重康峰 Gyachung Kang, Khumjung, सोलुखुम्बु, सगरमाथा अञ्चल, पुर्वाञ्चल विकास क्षेत्र, नेपाल",
    "rating": 0.0,
    "votes": 0
  },
  {
    "mountain": "Annapurna II",
    "metres": "7937",
    "metresSearchable": "7937",
    "feet": "26040",
    "range": "Himalayas",
    "locationAndNotes": "Nepal",
    "latitude": 28.5349707,
    "longitude": 84.1218222,
    "mainCountry": "Nepal",
    "formattedAddress": "अन्नपूर्णा II, Parche, कास्की, गण्डकी अञ्चल, पश्चिमाञ्चल विकास क्षेत्र, नेपाल",
    "rating": 0.0,
    "votes": 0
  },
  {
    "mountain": "Gasherbrum IV",
    "metres": "7932",
    "metresSearchable": "7932",
    "feet": "26024",
    "range": "Karakoram",
    "locationAndNotes": "Pakistan",
    "latitude": 35.7616816,
    "longitude": 76.6163553,
    "mainCountry": "Pakistan",
    "formattedAddress": "Gasherbrum IV, Baltistān District, گلگت بلتستان, پاکستان",
    "rating": 0.0,
    "votes": 0
  },
  {
    "mountain": "Himalchuli",
    "metres": "7893",
    "metresSearchable": "7893",
    "feet": "25896",
    "range": "Himalayas",
    "locationAndNotes": "Manaslu, Nepal",
    "latitude": 27.7616159,
    "longitude": 85.0716582,
    "mainCountry": "Nepal",
    "formattedAddress": "Shree Himalchuli Pra V, Prithvi Rajmarg, Dharke Bazzar, Naubise, धादिङ, बागमती अञ्चल, मध्यमाञ्चल विकास क्षेत्र, 8, Nepal",
    "rating": 0.0,
    "votes": 0
  },
  {
    "mountain": "Distaghil Sar",
    "metres": "7885",
    "metresSearchable": "7885",
    "feet": "25869",
    "range": "Karakoram",
    "locationAndNotes": "Pakistan",
    "latitude": 36.3247439,
    "longitude": 75.1883973,
    "mainCountry": "Pakistan",
    "formattedAddress": "Distaghil Sar, Gilgit District, گلگت بلتستان, پاکستان",
    "rating": 0.0,
    "votes": 0
  },
  {
    "mountain": "Ngadi Chuli",
    "metres": "7871",
    "metresSearchable": "7871",
    "feet": "25823",
    "range": "Himalayas",
    "locationAndNotes": "Manaslu, Nepal",
    "latitude": 28.5039267,
    "longitude": 84.5672489,
    "mainCountry": "Nepal",
    "formattedAddress": "Ngadi Chuli, Dharapani, मनाङ (Manang), गण्डकी अञ्चल, पश्चिमाञ्चल विकास क्षेत्र, नेपाल",
    "rating": 0.0,
    "votes": 0
  },
  {
    "mountain": "Nuptse",
    "metres": "7861",
    "metresSearchable": "7861",
    "feet": "25791",
    "range": "Himalayas",
    "locationAndNotes": "Everest Massif, Nepal",
    "latitude": 27.9679586,
    "longitude": 86.887081,
    "mainCountry": "Nepal",
    "formattedAddress": "Nuptse I, Khumjung, सोलुखुम्बु, सगरमाथा अञ्चल, पुर्वाञ्चल विकास क्षेत्र, नेपाल",
    "rating": 0.0,
    "votes": 0
  },
  {
    "mountain": "Khunyang Chhish",
    "metres": "7852",
    "metresSearchable": "7852",
    "feet": "25761",
    "range": "Karakoram",
    "locationAndNotes": "Pakistan",
    "latitude": 36.205278,
    "longitude": 75.207778,
    "mainCountry": "Pakistan",
    "formattedAddress": "Khunyang Chhish, Pakistan",
    "rating": 0.0,
    "votes": 0
  },
  {
    "mountain": "Masherbrum",
    "metres": "7821",
    "metresSearchable": "7821",
    "feet": "25659",
    "range": "Karakoram",
    "locationAndNotes": "Pakistan – Originally named K1",
    "latitude": 35.6433789,
    "longitude": 76.3080963,
    "mainCountry": "Pakistan",
    "formattedAddress": "Masherbrum (K1), Baltistān District, گلگت بلتستان, پاکستان",
    "rating": 0.0,
    "votes": 0
  },
  {
    "mountain": "Nanda Devi",
    "metres": "7816",
    "metresSearchable": "7816",
    "feet": "25643",
    "range": "Himalayas",
    "locationAndNotes": "India (Uttarakhand)",
    "latitude": 30.3760768,
    "longitude": 79.9701154,
    "mainCountry": "India",
    "formattedAddress": "Nanda Devi, Joshimath, Chamoli, Uttarakhand, India",
    "rating": 0.0,
    "votes": 0
  },
  {
    "mountain": "Chomo Lonzo",
    "metres": "7804",
    "metresSearchable": "7804",
    "feet": "25604",
    "range": "Himalayas",
    "locationAndNotes": "Makalu Massiff, Nepal/China",
    "latitude": 27.9300846,
    "longitude": 87.1075096,
    "mainCountry": "China",
    "formattedAddress": "珠穆隆索峰, དིང་རི་རྫོང་ / 定日县 / Tingri, གཞིས་ཀ་རྩེ་ས་ཁུལ་ / 日喀则市 / Shigatse, 西藏自治区, China 中国",
    "rating": 0.0,
    "votes": 0
  },
  {
    "mountain": "Batura Sar",
    "metres": "7795",
    "metresSearchable": "7795",
    "feet": "25574",
    "range": "Karakoram",
    "locationAndNotes": "Pakistan",
    "latitude": 36.5105692,
    "longitude": 74.5231031,
    "mainCountry": "Pakistan",
    "formattedAddress": "Batura Sar, Gilgit District, گلگت بلتستان, پاکستان",
    "rating": 0.0,
    "votes": 0
  },
  {
    "mountain": "Kanjut Sar",
    "metres": "7790",
    "metresSearchable": "7790",
    "feet": "25558",
    "range": "Karakoram",
    "locationAndNotes": "Pakistan",
    "latitude": 36.2051699,
    "longitude": 75.4161,
    "mainCountry": "Pakistan",
    "formattedAddress": "Kanjut Sar I, Baltistān District, گلگت بلتستان, پاکستان",
    "rating": 0.0,
    "votes": 0
  },
  {
    "mountain": "Rakaposhi",
    "metres": "7788",
    "metresSearchable": "7788",
    "feet": "25551",
    "range": "Karakoram",
    "locationAndNotes": "Pakistan",
    "latitude": 36.1423242,
    "longitude": 74.4881554,
    "mainCountry": "Pakistan",
    "formattedAddress": "Rakaposhi, گلگت, Gilgit District, گلگت بلتستان, پاکستان",
    "rating": 0.0,
    "votes": 0
  },
  {
    "mountain": "Namcha Barwa",
    "metres": "7782",
    "metresSearchable": "7782",
    "feet": "25531",
    "range": "Himalayas",
    "locationAndNotes": "China",
    "latitude": 29.6398331,
    "longitude": 95.065086,
    "mainCountry": "China",
    "formattedAddress": "གནམས་ལྕགས་འབར་བ། 南迦巴瓦峰, སྨན་གླིང་རྫོང་ / 米林县 / Mainling, ཉིང་ཁྲི་གྲོང་ཁྱེར། / 林芝市 / Nyingchi, 西藏自治区, China 中国",
    "rating": 0.0,
    "votes": 0
  },
  {
    "mountain": "Kamet",
    "metres": "7756",
    "metresSearchable": "7756",
    "feet": "25446",
    "range": "Himalayas",
    "locationAndNotes": "India (Uttarakhand)",
    "latitude": -1.792222,
    "longitude": 129.6425,
    "mainCountry": "Indonesia",
    "formattedAddress": "Kamet, Pabar, NKRI",
    "rating": 0.0,
    "votes": 0
  },
  {
    "mountain": "Saltoro Kangri",
    "metres": "7742",
    "metresSearchable": "7742",
    "feet": "25400",
    "range": "Karakoram",
    "locationAndNotes": "India (Jammu and Kashmir)/Pakistan",
    "latitude": 35.3995674,
    "longitude": 76.8475356,
    "mainCountry": "Pakistan",
    "formattedAddress": "Saltoro Kangri, Baltistān District, گلگت بلتستان, پاکستان",
    "rating": 0.0,
    "votes": 0
  },
  {
    "mountain": "Jannu",
    "metres": "7710",
    "metresSearchable": "7710",
    "feet": "25295",
    "range": "Himalayas",
    "locationAndNotes": "Kangchenjunga, Nepal",
    "latitude": 57.8683466,
    "longitude": 26.9117720261922,
    "mainCountry": "Estonia",
    "formattedAddress": "Jannu, Tallinn — Tartu — Võru — Luhamaa, Alakülä küla, Erastvere, Kanepi vald, Võru maakond, 65553, Eesti",
    "rating": 0.0,
    "votes": 0
  },
  {
    "mountain": "Tirich Mir",
    "metres": "7708",
    "metresSearchable": "7708",
    "feet": "25289",
    "range": "Hindu Kush",
    "locationAndNotes": "Pakistan – #1 in Hindu Kush",
    "latitude": 36.2557311,
    "longitude": 71.8489529,
    "mainCountry": "Pakistan",
    "formattedAddress": "Tirich Mir, Chitrāl District, خیبر پښتونخوا, پاکستان",
    "rating": 0.0,
    "votes": 0
  },
  {
    "mountain": "Molamenqing",
    "metres": "7703",
    "metresSearchable": "7703",
    "feet": "25272",
    "range": "Himalayas",
    "locationAndNotes": "Shishapangma group, China",
    "latitude": 28.3562952,
    "longitude": 85.8095369,
    "mainCountry": "China",
    "formattedAddress": "摩拉門青峰 Phola Gangchen, 聂拉木县, གཉའ་ལམ་རྫོང་ / 聂拉木县 / Nyalam, གཞིས་ཀ་རྩེ་ས་ཁུལ་ / 日喀则市 / Shigatse, 西藏自治区, China 中国",
    "rating": 0.0,
    "votes": 0
  },
  {
    "mountain": "Gurla Mandhata",
    "metres": "7694",
    "metresSearchable": "7694",
    "feet": "25243",
    "range": "Himalayas (Nalakankar)",
    "locationAndNotes": "China",
    "latitude": 30.4381185,
    "longitude": 81.2961069,
    "mainCountry": "China",
    "formattedAddress": "纳木那尼峰, 普兰镇, རྩ་མདའ་རྫོང་ / 普兰县 / Burang, མངའ་རིས་ས་ཁུལ་ / 阿里地区 / Ngari, 西藏自治区, China 中国",
    "rating": 0.0,
    "votes": 0
  },
  {
    "mountain": "Saser Kangri",
    "metres": "7672",
    "metresSearchable": "7672",
    "feet": "25171",
    "range": "Karakoram",
    "locationAndNotes": "India (Jammu and Kashmir)",
    "latitude": 34.8738553,
    "longitude": 77.7353387,
    "mainCountry": "India",
    "formattedAddress": "Saser Kangri IV, Leh District, Jammu and Kashmir, India",
    "rating": 0.0,
    "votes": 0
  },
  {
    "mountain": "Chogolisa",
    "metres": "7665",
    "metresSearchable": "7665",
    "feet": "25148",
    "range": "Karakoram",
    "locationAndNotes": "Pakistan",
    "latitude": 35.6129673,
    "longitude": 76.5739722,
    "mainCountry": "Pakistan",
    "formattedAddress": "Chogolisa, Baltistān District, گلگت بلتستان, پاکستان",
    "rating": 0.0,
    "votes": 0
  },
  {
    "mountain": "Kongur Tagh",
    "metres": "7649",
    "metresSearchable": "7649",
    "feet": "25095",
    "range": "Pamir or Kunlun Mountains",
    "locationAndNotes": "China",
    "latitude": 38.594522,
    "longitude": 75.3151402,
    "mainCountry": "China",
    "formattedAddress": "Kongur Tagh 公格尔峰, 阿克陶县 ئاقتو ناھىيىسى, 克孜勒苏州, 新疆维吾尔自治区, 中国",
    "rating": 0.0,
    "votes": 0
  },
  {
    "mountain": "Shispare",
    "metres": "7611",
    "metresSearchable": "7611",
    "feet": "24970",
    "range": "Karakoram",
    "locationAndNotes": "Pakistan",
    "latitude": 36.4398416,
    "longitude": 74.6806598,
    "mainCountry": "Pakistan",
    "formattedAddress": "Shispare, Gilgit District, گلگت بلتستان, پاکستان",
    "rating": 0.0,
    "votes": 0
  },
  {
    "mountain": "Silberzacken",
    "metres": "7597",
    "metresSearchable": "7597",
    "feet": "24925",
    "range": "Himalaya",
    "locationAndNotes": "Pakistan",
    "latitude": 35.2628893,
    "longitude": 74.6089531,
    "mainCountry": "Pakistan",
    "formattedAddress": "Nanga Parbat East Peak, Diāmir District, گلگت بلتستان, پاکستان",
    "rating": 0.0,
    "votes": 0
  },
  {
    "mountain": "Changtse",
    "metres": "7583",
    "metresSearchable": "7583",
    "feet": "24879",
    "range": "Himalayas",
    "locationAndNotes": "Everest Massif, China",
    "latitude": 28.024329,
    "longitude": 86.9151856,
    "mainCountry": "China",
    "formattedAddress": "章子峰, 扎西宗乡, དིང་རི་རྫོང་ / 定日县 / Tingri, གཞིས་ཀ་རྩེ་ས་ཁུལ་ / 日喀则市 / Shigatse, 西藏自治区, China 中国",
    "rating": 0.0,
    "votes": 0
  },
  {
    "mountain": "Trivor",
    "metres": "7577",
    "metresSearchable": "7577",
    "feet": "24859",
    "range": "Karakoram",
    "locationAndNotes": "Karakoram – Pakistan",
    "latitude": 36.2884137,
    "longitude": 75.0771899,
    "mainCountry": "Pakistan",
    "formattedAddress": "Trivor, Gilgit District, گلگت بلتستان, پاکستان",
    "rating": 0.0,
    "votes": 0
  },
  {
    "mountain": "Gangkhar Puensum",
    "metres": "7570",
    "metresSearchable": "7570",
    "feet": "24836",
    "range": "Himalayas",
    "locationAndNotes": "Bhutan/China",
    "latitude": 28.0472866,
    "longitude": 90.45488,
    "mainCountry": "Bhutan",
    "formattedAddress": "གངས་དཀར་སྤུན་གསུམ་ / 冈嘎本孙峰, Bumthang Dzongkhag, བུམ་ཐང་རྫོང་ཁག་, འབྲུག་ཡུལ་",
    "rating": 0.0,
    "votes": 0
  },
  {
    "mountain": "Gongga Shan",
    "metres": "7556",
    "metresSearchable": "7556",
    "feet": "24790",
    "range": "Daxue Shan",
    "locationAndNotes": "Sichuan, China",
    "latitude": 29.595207,
    "longitude": 101.8788854,
    "mainCountry": "China",
    "formattedAddress": "贡嘎山, 泸定县, ལྕགས་ཟམ་རྫོང་ / 泸定县 / Luding, དཀར་མཛེས 甘孜藏族自治州, 四川省, 中国",
    "rating": 0.0,
    "votes": 0
  },
  {
    "mountain": "Annapurna III",
    "metres": "7555",
    "metresSearchable": "7555",
    "feet": "24787",
    "range": "Himalayas",
    "locationAndNotes": "Nepal",
    "latitude": 28.6092163,
    "longitude": 83.8553927,
    "mainCountry": "Nepal",
    "formattedAddress": "Annapurna III, Narchyang, म्याग्दी (Myagdi), धौलागिरी अञ्चल, पश्चिमाञ्चल विकास क्षेत्र, नेपाल",
    "rating": 0.0,
    "votes": 0
  },
  {
    "mountain": "Kula Kangri",
    "metres": "7554",
    "metresSearchable": "7554",
    "feet": "24783",
    "range": "Himalayas",
    "locationAndNotes": "China  (possibly also Bhutan)",
    "latitude": 28.2275,
    "longitude": 90.6166667,
    "mainCountry": "China",
    "formattedAddress": "Kula Kangri, 洛扎县, ལྷོ་བྲག་རྫོང་ / 洛扎县 / Lhozhag, ལྷོ་ཁ་ས་ཁུལ། / 山南市 / Shannan, 西藏自治区, China 中国",
    "rating": 0.0,
    "votes": 0
  },
  {
    "mountain": "Muztagh Ata",
    "metres": "7546",
    "metresSearchable": "7546",
    "feet": "24757",
    "range": "Kongur Tagh",
    "locationAndNotes": "China (Xinjiang)",
    "latitude": 38.2761073,
    "longitude": 75.1158944,
    "mainCountry": "China",
    "formattedAddress": "慕士塔格峰 Muztagh Ata مۇز تاغ ئاتا, 塔什库尔干县, قەشقەر ۋىلايىتى 喀什地区 Kashgar, 新疆维吾尔自治区, 中国",
    "rating": 0.0,
    "votes": 0
  },
  {
    "mountain": "Skyang Kangri",
    "metres": "7545",
    "metresSearchable": "7545",
    "feet": "24754",
    "range": "Karakoram",
    "locationAndNotes": "Pakistan",
    "latitude": 35.9266667,
    "longitude": 76.5675,
    "mainCountry": "China",
    "formattedAddress": "Skyang Kangri, 喀喇昆仑走廊 (Trans-Karakoram Tract), 塔什库尔干县, قەشقەر ۋىلايىتى 喀什地区 Kashgar, 新疆维吾尔自治区, 中国",
    "rating": 0.0,
    "votes": 0
  },
  {
    "mountain": "Liankang Kangri",
    "metres": "7535",
    "metresSearchable": "7535",
    "feet": "24721",
    "range": "Himalayas",
    "locationAndNotes": "Bhutan/China",
    "latitude": 28.063889,
    "longitude": 90.443056,
    "mainCountry": "China",
    "formattedAddress": "Liankang Kangri, Bhutan/China",
    "rating": 0.0,
    "votes": 0
  },
  {
    "mountain": "Yukshin Gardan Sar",
    "metres": "7530",
    "metresSearchable": "7530",
    "feet": "24705",
    "range": "Karakoram",
    "locationAndNotes": "Pakistan",
    "latitude": 36.2592127,
    "longitude": 75.3758807,
    "mainCountry": "Pakistan",
    "formattedAddress": "Yukshin Gardan Sar, Baltistān District, گلگت بلتستان, پاکستان",
    "rating": 0.0,
    "votes": 0
  },
  {
    "mountain": "Annapurna IV",
    "metres": "7525",
    "metresSearchable": "7525",
    "feet": "24688",
    "range": "Himalayas",
    "locationAndNotes": "Nepal",
    "latitude": 28.5368932,
    "longitude": 84.0835623,
    "mainCountry": "Nepal",
    "formattedAddress": "अन्नपूर्णा IV, Machhapuchhre, कास्की, गण्डकी अञ्चल, पश्चिमाञ्चल विकास क्षेत्र, नेपाल",
    "rating": 0.0,
    "votes": 0
  },
  {
    "mountain": "Saser Kangri II",
    "metres": "7518",
    "metresSearchable": "7518",
    "feet": "24665",
    "range": "Karakoram",
    "locationAndNotes": "India (Jammu and Kashmir)",
    "latitude": 34.8044772,
    "longitude": 77.8053996,
    "mainCountry": "India",
    "formattedAddress": "Saser Kangri II, Leh District, Jammu and Kashmir, India",
    "rating": 0.0,
    "votes": 0
  },
  {
    "mountain": "Mamostong Kangri",
    "metres": "7516",
    "metresSearchable": "7516",
    "feet": "24659",
    "range": "Karakoram",
    "locationAndNotes": "India (Jammu and Kashmir)",
    "latitude": 35.1421531,
    "longitude": 77.5773882,
    "mainCountry": "India",
    "formattedAddress": "Mamostong Kangri, Leh District, Jammu and Kashmir, India",
    "rating": 0.0,
    "votes": 0
  },
  {
    "mountain": "Ismoil Somoni Peak",
    "metres": "7495",
    "metresSearchable": "7495",
    "feet": "24590",
    "range": "Pamir Mountains",
    "locationAndNotes": "Tajikistan",
    "latitude": 38.9421265,
    "longitude": 72.0147523,
    "mainCountry": "Tajikistan",
    "formattedAddress": "Қуллаи Исмоили Сомонӣ, Ноҳияи Тавилдара, Ноҳияҳои тобеи ҷумҳурӣ, Тоҷикистон",
    "rating": 0.0,
    "votes": 0
  },
  {
    "mountain": "Saser Kangri III",
    "metres": "7495",
    "metresSearchable": "7495",
    "feet": "24590",
    "range": "Karakoram",
    "locationAndNotes": "India (Jammu and Kashmir)",
    "latitude": 34.8448012,
    "longitude": 77.7845675,
    "mainCountry": "India",
    "formattedAddress": "Saser Kangri III, Leh District, Jammu and Kashmir, India",
    "rating": 0.0,
    "votes": 0
  },
  {
    "mountain": "Noshaq",
    "metres": "7492",
    "metresSearchable": "7492",
    "feet": "24580",
    "range": "Hindu Kush",
    "locationAndNotes": "Afghanistan – #1 in Afghanistan",
    "latitude": 36.4349883,
    "longitude": 71.8384619,
    "mainCountry": "Pakistan",
    "formattedAddress": "نوشاخ, Chitrāl District, خیبر پښتونخوا, پاکستان",
    "rating": 0.0,
    "votes": 0
  },
  {
    "mountain": "Pumari Chhish",
    "metres": "7492",
    "metresSearchable": "7492",
    "feet": "24580",
    "range": "Karakoram",
    "locationAndNotes": "Pakistan",
    "latitude": 36.2264006,
    "longitude": 75.2593226,
    "mainCountry": "Pakistan",
    "formattedAddress": "Peak 11, Gilgit District, گلگت بلتستان, پاکستان",
    "rating": 0.0,
    "votes": 0
  },
  {
    "mountain": "Passu Sar",
    "metres": "7476",
    "metresSearchable": "7476",
    "feet": "24528",
    "range": "Karakoram",
    "locationAndNotes": "Pakistan",
    "latitude": 39.3026159,
    "longitude": 8.4380613,
    "mainCountry": "Italy",
    "formattedAddress": "Canale su Passu Malu, SU, SAR, 09016, Italia",
    "rating": 0.0,
    "votes": 0
  },
  {
    "mountain": "Malubiting",
    "metres": "7458",
    "metresSearchable": "7458",
    "feet": "24469",
    "range": "Karakoram",
    "locationAndNotes": "Pakistan",
    "latitude": 36.0028681,
    "longitude": 74.875989,
    "mainCountry": "Pakistan",
    "formattedAddress": "Malubiting, Gilgit District, گلگت بلتستان, پاکستان",
    "rating": 0.0,
    "votes": 0
  },
  {
    "mountain": "Gangapurna",
    "metres": "7455",
    "metresSearchable": "7455",
    "feet": "24459",
    "range": "Annapurna Himalaya",
    "locationAndNotes": "Nepal",
    "latitude": 28.605655,
    "longitude": 83.9635144,
    "mainCountry": "Nepal",
    "formattedAddress": "Gangapurna, Khansar, मनाङ (Manang), गण्डकी अञ्चल, पश्चिमाञ्चल विकास क्षेत्र, नेपाल",
    "rating": 0.0,
    "votes": 0
  },
  {
    "mountain": "Muchu Chhish (Batura V)",
    "metres": "7453",
    "metresSearchable": "7453",
    "feet": "24452",
    "range": "Karakoram",
    "locationAndNotes": "Pakistan",
    "latitude": 36.502222,
    "longitude": 74.555556,
    "mainCountry": "Pakistan",
    "formattedAddress": "Muchu Chhish (Batura V), Pakistan",
    "rating": 0.0,
    "votes": 0
  },
  {
    "mountain": "Jengish Chokusu",
    "metres": "7439",
    "metresSearchable": "7439",
    "feet": "24406",
    "range": "Tian Shan",
    "locationAndNotes": "China/Kyrgyzstan – #1 in Tian Shan",
    "latitude": 42.0346617,
    "longitude": 80.1287134,
    "mainCountry": "China",
    "formattedAddress": "Пик Победы Жеңиш чокусу 托木尔峰 Jengish Chokusu, 温宿县, 阿克苏地区, 新疆维吾尔自治区, 中国",
    "rating": 0.0,
    "votes": 0
  },
  {
    "mountain": "K12",
    "metres": "7428",
    "metresSearchable": "7428",
    "feet": "24370",
    "range": "Karakoram",
    "locationAndNotes": "Pakistan (Jammu and Kashmir)/India",
    "latitude": 35.2954518,
    "longitude": 77.0218678,
    "mainCountry": "Pakistan",
    "formattedAddress": "K12, Baltistān District, گلگت بلتستان, پاکستان",
    "rating": 0.0,
    "votes": 0
  },
  {
    "mountain": "Sia Kangri",
    "metres": "7422",
    "metresSearchable": "7422",
    "feet": "24350",
    "range": "Karakoram",
    "locationAndNotes": "Pakistan",
    "latitude": 35.663734,
    "longitude": 76.7621959,
    "mainCountry": "China",
    "formattedAddress": "Sia Kangri, 喀喇昆仑走廊 (Trans-Karakoram Tract), 塔什库尔干县, قەشقەر ۋىلايىتى 喀什地区 Kashgar, 新疆维吾尔自治区, 中国",
    "rating": 0.0,
    "votes": 0
  },
  {
    "mountain": "Istor-o-Nal",
    "metres": "7403",
    "metresSearchable": "7403",
    "feet": "24288",
    "range": "Hindu Kush",
    "locationAndNotes": "Pakistan",
    "latitude": 36.3772944,
    "longitude": 71.8975107,
    "mainCountry": "Pakistan",
    "formattedAddress": "Istor-o-Nal, Chitrāl District, خیبر پښتونخوا, پاکستان",
    "rating": 0.0,
    "votes": 0
  },
  {
    "mountain": "Ghent Kangri",
    "metres": "7401",
    "metresSearchable": "7401",
    "feet": "24281",
    "range": "Karakoram",
    "locationAndNotes": "India (Jammu and Kashmir)/Pakistan",
    "latitude": 35.5178275,
    "longitude": 76.8001199,
    "mainCountry": "India",
    "formattedAddress": "Ghent Kangri, Leh District, Jammu and Kashmir, India",
    "rating": 0.0,
    "votes": 0
  },
  {
    "mountain": "Haramosh Peak",
    "metres": "7397",
    "metresSearchable": "7397",
    "feet": "24268",
    "range": "Karakoram",
    "locationAndNotes": "Pakistan",
    "latitude": 35.8401654,
    "longitude": 74.8970542,
    "mainCountry": "Pakistan",
    "formattedAddress": "Haramosh, Diāmir District, گلگت بلتستان, پاکستان",
    "rating": 0.0,
    "votes": 0
  },
  {
    "mountain": "Kabru",
    "metres": "7394",
    "metresSearchable": "7394",
    "feet": "24259",
    "range": "Himalayas",
    "locationAndNotes": "Kanchenjunga, India (Sikkim)/Nepal",
    "latitude": 27.6250704,
    "longitude": 88.1176541,
    "mainCountry": "Nepal",
    "formattedAddress": "Kabru, Yamfudin, ताप्लेजुङ, मेची अञ्चल, पुर्वाञ्चल विकास क्षेत्र, नेपाल",
    "rating": 0.0,
    "votes": 0
  },
  {
    "mountain": "Ultar",
    "metres": "7388",
    "metresSearchable": "7388",
    "feet": "24239",
    "range": "Karakoram",
    "locationAndNotes": "Pakistan",
    "latitude": 36.4036071,
    "longitude": 74.6943415,
    "mainCountry": "Pakistan",
    "formattedAddress": "Ultar Peak, Gilgit District, گلگت بلتستان, پاکستان",
    "rating": 0.0,
    "votes": 0
  },
  {
    "mountain": "Rimo I",
    "metres": "7385",
    "metresSearchable": "7385",
    "feet": "24229",
    "range": "Karakoram",
    "locationAndNotes": "India (Jammu and Kashmir)",
    "latitude": 35.354573,
    "longitude": 77.3682874,
    "mainCountry": "India",
    "formattedAddress": "Rimo I, Leh District, Jammu and Kashmir, India",
    "rating": 0.0,
    "votes": 0
  },
  {
    "mountain": "Sherpi Kangri",
    "metres": "7380",
    "metresSearchable": "7380",
    "feet": "24213",
    "range": "Karakoram",
    "locationAndNotes": "Pakistan",
    "latitude": 35.4722218,
    "longitude": 76.7843699,
    "mainCountry": "Pakistan",
    "formattedAddress": "Sherpi Kangri, Baltistān District, گلگت بلتستان, پاکستان",
    "rating": 0.0,
    "votes": 0
  },
  {
    "mountain": "Labuche Kang",
    "metres": "7367",
    "metresSearchable": "7367",
    "feet": "24170",
    "range": "Himalayas",
    "locationAndNotes": "near Cho Oyu, Nepal/China",
    "latitude": 28.3046025,
    "longitude": 86.3220117,
    "mainCountry": "China",
    "formattedAddress": "Lapche Kang II, 聂拉木县, གཉའ་ལམ་རྫོང་ / 聂拉木县 / Nyalam, གཞིས་ཀ་རྩེ་ས་ཁུལ་ / 日喀则市 / Shigatse, 西藏自治区, China 中国",
    "rating": 0.0,
    "votes": 0
  },
  {
    "mountain": "Kirat Chuli",
    "metres": "7365",
    "metresSearchable": "7365",
    "feet": "24163",
    "range": "Himalayas",
    "locationAndNotes": "Nepal/India (Sikkim) border",
    "latitude": 27.7914626,
    "longitude": 88.1971372,
    "mainCountry": "India",
    "formattedAddress": "Kirat Chuli (Tent Peak), Chungthang, North Sikkim District, Sikkim, India",
    "rating": 0.0,
    "votes": 0
  },
  {
    "mountain": "Skil Brum",
    "metres": "7360",
    "metresSearchable": "7360",
    "feet": "24147",
    "range": "Karakoram",
    "locationAndNotes": "Pakistan – May also be given as 7410 m",
    "latitude": 35.8512112,
    "longitude": 76.4259919,
    "mainCountry": "Pakistan",
    "formattedAddress": "Skil Brum, Baltistān District, گلگت بلتستان, پاکستان",
    "rating": 0.0,
    "votes": 0
  },
  {
    "mountain": "Gimmigela Chuli",
    "metres": "7350",
    "metresSearchable": "7350",
    "feet": "24114",
    "range": "Himalayas",
    "locationAndNotes": "Nepal/India (Sikkim) border",
    "latitude": 27.733333,
    "longitude": 88.15,
    "mainCountry": "Nepal",
    "formattedAddress": "Gimmigela Chuli, Nepal/India (Sikkim) border",
    "rating": 0.0,
    "votes": 0
  },
  {
    "mountain": "Bojohagur Duanasir",
    "metres": "7329",
    "metresSearchable": "7329",
    "feet": "24045",
    "range": "Karakoram",
    "locationAndNotes": "Pakistan",
    "latitude": 36.4271873,
    "longitude": 74.6888566,
    "mainCountry": "Pakistan",
    "formattedAddress": "Bojohaghur I, Gilgit District, گلگت بلتستان, پاکستان",
    "rating": 0.0,
    "votes": 0
  },
  {
    "mountain": "Chamlang",
    "metres": "7319",
    "metresSearchable": "7319",
    "feet": "24012",
    "range": "Himalayas",
    "locationAndNotes": "Khumbu, Nepal",
    "latitude": 27.7772801,
    "longitude": 86.98151,
    "mainCountry": "Nepal",
    "formattedAddress": "Chamlang, Chheskam, सोलुखुम्बु, सगरमाथा अञ्चल, पुर्वाञ्चल विकास क्षेत्र, नेपाल",
    "rating": 0.0,
    "votes": 0
  },
  {
    "mountain": "Jomolhari / Chomolhari",
    "metres": "7314",
    "metresSearchable": "7314",
    "feet": "23996",
    "range": "Himalayas",
    "locationAndNotes": "Bhutan/China",
    "latitude": 27.8274214,
    "longitude": 89.2674167,
    "mainCountry": "China",
    "formattedAddress": "ཇོ་མོ་ལྷ་ར 绰莫拉日峰 Chomolhari, 堆纳乡, གྲོ་མོ་རྫོང / 亚东县 / Yadong, གཞིས་ཀ་རྩེ་ས་ཁུལ་ / 日喀则市 / Shigatse, 西藏自治区, China 中国",
    "rating": 0.0,
    "votes": 0
  },
  {
    "mountain": "Baltoro Kangri",
    "metres": "7312",
    "metresSearchable": "7312",
    "feet": "23990",
    "range": "Karakoram",
    "locationAndNotes": "Pakistan",
    "latitude": 35.6456681,
    "longitude": 76.6656741,
    "mainCountry": "Pakistan",
    "formattedAddress": "Baltoro Kangri, Baltistān District, گلگت بلتستان, پاکستان",
    "rating": 0.0,
    "votes": 0
  },
  {
    "mountain": "Siguang Ri",
    "metres": "7308",
    "metresSearchable": "7308",
    "feet": "23976",
    "range": "Himalayas",
    "locationAndNotes": "China",
    "latitude": 28.1478873,
    "longitude": 86.684561,
    "mainCountry": "China",
    "formattedAddress": "Siguang Ri, 扎西宗乡, དིང་རི་རྫོང་ / 定日县 / Tingri, གཞིས་ཀ་རྩེ་ས་ཁུལ་ / 日喀则市 / Shigatse, 西藏自治区, China 中国",
    "rating": 0.0,
    "votes": 0
  },
  {
    "mountain": "The Crown",
    "metres": "7295",
    "metresSearchable": "7295",
    "feet": "23934",
    "range": "Karakoram",
    "locationAndNotes": "China (Xinjiang)",
    "latitude": 37.7584406,
    "longitude": -81.844007,
    "mainCountry": "United States",
    "formattedAddress": "Crown, Logan County, West Virginia, 25654, USA",
    "rating": 0.0,
    "votes": 0
  },
  {
    "mountain": "Gyala Peri",
    "metres": "7294",
    "metresSearchable": "7294",
    "feet": "23930",
    "range": "Himalayas",
    "locationAndNotes": "China",
    "latitude": 29.813035,
    "longitude": 94.9677112,
    "mainCountry": "China",
    "formattedAddress": "加拉白垒, བྲག་ཡིབ་གྲོང་ཆུས་ / 巴宜区 / Bayi, ཉིང་ཁྲི་གྲོང་ཁྱེར། / 林芝市 / Nyingchi, 西藏自治区, China 中国",
    "rating": 0.0,
    "votes": 0
  },
  {
    "mountain": "Porong Ri",
    "metres": "7292",
    "metresSearchable": "7292",
    "feet": "23924",
    "range": "Himalayas",
    "locationAndNotes": "China",
    "latitude": 28.38947,
    "longitude": 85.71992,
    "mainCountry": "China",
    "formattedAddress": "Porong Ri, 聂拉木县, གཉའ་ལམ་རྫོང་ / 聂拉木县 / Nyalam, གཞིས་ཀ་རྩེ་ས་ཁུལ་ / 日喀则市 / Shigatse, 西藏自治区, China 中国",
    "rating": 0.0,
    "votes": 0
  },
  {
    "mountain": "Baintha Brakk",
    "metres": "7285",
    "metresSearchable": "7285",
    "feet": "23901",
    "range": "Karakoram",
    "locationAndNotes": "Pakistan",
    "latitude": 35.9475333,
    "longitude": 75.7519683,
    "mainCountry": "Pakistan",
    "formattedAddress": "Baintha Brakk, Baltistān District, گلگت بلتستان, پاکستان",
    "rating": 0.0,
    "votes": 0
  },
  {
    "mountain": "Yutmaru Sar",
    "metres": "7283",
    "metresSearchable": "7283",
    "feet": "23894",
    "range": "Karakoram",
    "locationAndNotes": "Pakistan",
    "latitude": 36.2270237,
    "longitude": 75.3624911,
    "mainCountry": "Pakistan",
    "formattedAddress": "Yutmaru Sar, Baltistān District, گلگت بلتستان, پاکستان",
    "rating": 0.0,
    "votes": 0
  },
  {
    "mountain": "K6",
    "metres": "7282",
    "metresSearchable": "7282",
    "feet": "23891",
    "range": "Karakoram",
    "locationAndNotes": "Pakistan – Also known as Baltistan Peak",
    "latitude": 12.7902283,
    "longitude": -1.0144973,
    "mainCountry": "Burkina Faso",
    "formattedAddress": "k6, Sanmatenga, Centre-Nord, Burkina",
    "rating": 0.0,
    "votes": 0
  },
  {
    "mountain": "Kangpenqing",
    "metres": "7281",
    "metresSearchable": "7281",
    "feet": "23888",
    "range": "Himalayas",
    "locationAndNotes": "China",
    "latitude": 28.55,
    "longitude": 85.55,
    "mainCountry": "China",
    "formattedAddress": "Kangpenqing, China",
    "rating": 0.0,
    "votes": 0
  },
  {
    "mountain": "Mana Peak",
    "metres": "7272",
    "metresSearchable": "7272",
    "feet": "23858",
    "range": "Himalayas",
    "locationAndNotes": "India (Uttarakhand) – SSE of Kamet",
    "latitude": 30.8802936,
    "longitude": 79.6142828,
    "mainCountry": "India",
    "formattedAddress": "Mana Peak, Joshimath, Chamoli, Uttarakhand, India",
    "rating": 0.0,
    "votes": 0
  },
  {
    "mountain": "Muztagh Tower",
    "metres": "7273",
    "metresSearchable": "7273",
    "feet": "23862",
    "range": "Karakoram",
    "locationAndNotes": "Pakistan",
    "latitude": 35.8272519,
    "longitude": 76.3624691,
    "mainCountry": "Pakistan",
    "formattedAddress": "Muztagh Tower, Baltistān District, گلگت بلتستان, پاکستان",
    "rating": 0.0,
    "votes": 0
  },
  {
    "mountain": "Diran",
    "metres": "7257",
    "metresSearchable": "7257",
    "feet": "23809",
    "range": "Karakoram",
    "locationAndNotes": "Pakistan",
    "latitude": 36.1246769,
    "longitude": 74.6592717,
    "mainCountry": "Pakistan",
    "formattedAddress": "Diran, گلگت, Gilgit District, گلگت بلتستان, پاکستان",
    "rating": 0.0,
    "votes": 0
  },
  {
    "mountain": "Apsarasas Kangri",
    "metres": "7245",
    "metresSearchable": "7245",
    "feet": "23770",
    "range": "Karakoram",
    "locationAndNotes": "China/India",
    "latitude": 35.536284,
    "longitude": 77.1696217,
    "mainCountry": "India",
    "formattedAddress": "Apsarasas Kangri II, Leh District, Jammu and Kashmir, India",
    "rating": 0.0,
    "votes": 0
  },
  {
    "mountain": "Langtang Lirung",
    "metres": "7227",
    "metresSearchable": "7227",
    "feet": "23711",
    "range": "Himalayas",
    "locationAndNotes": "Nepal",
    "latitude": 28.256616,
    "longitude": 85.5168032,
    "mainCountry": "Nepal",
    "formattedAddress": "लाङटाङ लिरुङ Langtang Lirung, Lantan, रसुवा, बागमती अञ्चल, मध्यमाञ्चल विकास क्षेत्र, नेपाल",
    "rating": 0.0,
    "votes": 0
  },
  {
    "mountain": "Annapurna South",
    "metres": "7219",
    "metresSearchable": "7219",
    "feet": "23684",
    "range": "Himalayas",
    "locationAndNotes": "Nepal",
    "latitude": 28.5183959,
    "longitude": 83.8063433,
    "mainCountry": "Nepal",
    "formattedAddress": "Annapurna South, Ghandruk, कास्की, गण्डकी अञ्चल, पश्चिमाञ्चल विकास क्षेत्र, नेपाल",
    "rating": 0.0,
    "votes": 0
  },
  {
    "mountain": "Khartaphu",
    "metres": "7213",
    "metresSearchable": "7213",
    "feet": "23665",
    "range": "Himalayas",
    "locationAndNotes": "China",
    "latitude": 28.0641783,
    "longitude": 86.977291,
    "mainCountry": "China",
    "formattedAddress": "Khartaphu, 扎西宗乡, དིང་རི་རྫོང་ / 定日县 / Tingri, གཞིས་ཀ་རྩེ་ས་ཁུལ་ / 日喀则市 / Shigatse, 西藏自治区, China 中国",
    "rating": 0.0,
    "votes": 0
  },
  {
    "mountain": "Tongshanjiabu",
    "metres": "7207",
    "metresSearchable": "7207",
    "feet": "23645",
    "range": "Himalayas",
    "locationAndNotes": "Bhutan/China",
    "latitude": 28.1843626,
    "longitude": 89.957242,
    "mainCountry": "Bhutan",
    "formattedAddress": "同山加布峰, Punakha Dzongkhag, མགར་ས་རྫོང་ཁག་, འབྲུག་ཡུལ་",
    "rating": 0.0,
    "votes": 0
  },
  {
    "mountain": "Langtang Ri",
    "metres": "7205",
    "metresSearchable": "7205",
    "feet": "23638",
    "range": "Himalayas",
    "locationAndNotes": "Nepal/China",
    "latitude": 28.3821284,
    "longitude": 85.6837887,
    "mainCountry": "Nepal",
    "formattedAddress": "Langtang Ri, Lantan, रसुवा, बागमती अञ्चल, मध्यमाञ्चल विकास क्षेत्र, नेपाल",
    "rating": 0.0,
    "votes": 0
  },
  {
    "mountain": "Kangphu Kang",
    "metres": "7204",
    "metresSearchable": "7204",
    "feet": "23635",
    "range": "Himalayas",
    "locationAndNotes": "Bhutan/China",
    "latitude": 28.156667,
    "longitude": 90.070833,
    "mainCountry": "Bhutan",
    "formattedAddress": "Kangphu Kang, Bhutan–China border",
    "rating": 0.0,
    "votes": 0
  },
  {
    "mountain": "Lupghar Sar",
    "metres": "7200",
    "metresSearchable": "7200",
    "feet": "23622",
    "range": "Karakoram",
    "locationAndNotes": "Pakistan",
    "latitude": 36.3468286,
    "longitude": 75.0104856,
    "mainCountry": "Pakistan",
    "formattedAddress": "Lupghar Sar, Gilgit District, گلگت بلتستان, پاکستان",
    "rating": 0.0,
    "votes": 0
  },
  {
    "mountain": "Melungtse",
    "metres": "7181",
    "metresSearchable": "7181",
    "feet": "23560",
    "range": "Rolwaling Himalayas",
    "locationAndNotes": "China",
    "latitude": 27.9720795,
    "longitude": 86.4330115,
    "mainCountry": "China",
    "formattedAddress": "乔格茹峰, དིང་རི་རྫོང་ / 定日县 / Tingri, གཞིས་ཀ་རྩེ་ས་ཁུལ་ / 日喀则市 / Shigatse, 西藏自治区, China 中国",
    "rating": 0.0,
    "votes": 0
  },
  {
    "mountain": "Liushi Shan",
    "metres": "7167",
    "metresSearchable": "7167",
    "feet": "23514",
    "range": "Kunlun",
    "locationAndNotes": "China – #1 in Kunlun",
    "latitude": 35.3151456,
    "longitude": 80.9161365,
    "mainCountry": "China",
    "formattedAddress": "লিউশি শান, 东汝乡, རུ་ཐོག་རྫོང་ / 日土县 / Rutoq, མངའ་རིས་ས་ཁུལ་ / 阿里地区 / Ngari, 西藏自治区, China 中国",
    "rating": 0.0,
    "votes": 0
  },
  {
    "mountain": "Baruntse",
    "metres": "7162",
    "metresSearchable": "7162",
    "feet": "23497",
    "range": "Himalayas",
    "locationAndNotes": "Khumbu, Nepal",
    "latitude": 27.8720615,
    "longitude": 86.9796489,
    "mainCountry": "Nepal",
    "formattedAddress": "Baruntse, Makalu, सङ्खुवासभा, कोशी अञ्चल, पुर्वाञ्चल विकास क्षेत्र, नेपाल",
    "rating": 0.0,
    "votes": 0
  },
  {
    "mountain": "Pumori",
    "metres": "7161",
    "metresSearchable": "7161",
    "feet": "23494",
    "range": "Himalayas",
    "locationAndNotes": "Khumbu, Nepal",
    "latitude": 28.0160417,
    "longitude": 86.8273988,
    "mainCountry": "China",
    "formattedAddress": "Pumori, 扎西宗乡, དིང་རི་རྫོང་ / 定日县 / Tingri, གཞིས་ཀ་རྩེ་ས་ཁུལ་ / 日喀则市 / Shigatse, 西藏自治区, China 中国",
    "rating": 0.0,
    "votes": 0
  },
  {
    "mountain": "Hardeol",
    "metres": "7151",
    "metresSearchable": "7151",
    "feet": "23461",
    "range": "Himalayas",
    "locationAndNotes": "India (Uttarakhand)",
    "latitude": 30.5609123,
    "longitude": 80.0109895,
    "mainCountry": "India",
    "formattedAddress": "Hardeol, Joshimath, Chamoli, Uttarakhand, India",
    "rating": 0.0,
    "votes": 0
  },
  {
    "mountain": "Gasherbrum V",
    "metres": "7147",
    "metresSearchable": "7147",
    "feet": "23448",
    "range": "Karakoram",
    "locationAndNotes": "Pakistan",
    "latitude": 35.7296879,
    "longitude": 76.6137002,
    "mainCountry": "Pakistan",
    "formattedAddress": "Gasherbrum V, Baltistān District, گلگت بلتستان, پاکستان",
    "rating": 0.0,
    "votes": 0
  },
  {
    "mountain": "Latok I",
    "metres": "7145",
    "metresSearchable": "7145",
    "feet": "23442",
    "range": "Karakoram",
    "locationAndNotes": "Pakistan",
    "latitude": 35.9223161,
    "longitude": 75.8041835,
    "mainCountry": "Pakistan",
    "formattedAddress": "Latok I, Baltistān District, گلگت بلتستان, پاکستان",
    "rating": 0.0,
    "votes": 0
  },
  {
    "mountain": "Nemjung",
    "metres": "7140",
    "metresSearchable": "7140",
    "feet": "23425",
    "range": "Himalayas",
    "locationAndNotes": "Nepal",
    "latitude": 28.735,
    "longitude": 84.416667,
    "mainCountry": "Nepal",
    "formattedAddress": "Nemjung, Manang District, Gandaki Zone, North central Nepal",
    "rating": 0.0,
    "votes": 0
  },
  {
    "mountain": "Udren Zom",
    "metres": "7140",
    "metresSearchable": "7140",
    "feet": "23425",
    "range": "Hindu Kush",
    "locationAndNotes": "Pakistan",
    "latitude": 36.5364372,
    "longitude": 71.9866115,
    "mainCountry": "Pakistan",
    "formattedAddress": "Udren Zom, Chitrāl District, خیبر پښتونخوا, پاکستان",
    "rating": 0.0,
    "votes": 0
  },
  {
    "mountain": "Chaukhamba",
    "metres": "7138",
    "metresSearchable": "7138",
    "feet": "23419",
    "range": "Himalayas",
    "locationAndNotes": "India (Uttarakhand)",
    "latitude": 30.723856,
    "longitude": 79.2743668,
    "mainCountry": "India",
    "formattedAddress": "Chaukhamba III, Ukhimath, Rudraprayag, Uttarakhand, India",
    "rating": 0.0,
    "votes": 0
  },
  {
    "mountain": "Nun Kun",
    "metres": "7135",
    "metresSearchable": "7135",
    "feet": "23409",
    "range": "Karakoram",
    "locationAndNotes": "India (Jammu and Kashmir)",
    "latitude": 16.433724,
    "longitude": 102.9452764,
    "mainCountry": "Thailand",
    "formattedAddress": "บ้านบึงใคร่นุ่น, จังหวัดขอนแก่น, ประเทศไทย",
    "rating": 0.0,
    "votes": 0
  },
  {
    "mountain": "Tilicho Peak",
    "metres": "7134",
    "metresSearchable": "7134",
    "feet": "23406",
    "range": "Himalayas",
    "locationAndNotes": "Annapurna Himal, Nepal",
    "latitude": 28.6826518,
    "longitude": 83.8114833,
    "mainCountry": "Nepal",
    "formattedAddress": "Tilicho Peak, Narchyang, म्याग्दी (Myagdi), धौलागिरी अञ्चल, पश्चिमाञ्चल विकास क्षेत्र, नेपाल",
    "rating": 0.0,
    "votes": 0
  },
  {
    "mountain": "Gauri Sankar",
    "metres": "7134",
    "metresSearchable": "7134",
    "feet": "23406",
    "range": "Rolwaling Himalayas",
    "locationAndNotes": "Nepal/China",
    "latitude": 27.8859344,
    "longitude": 86.3985657630171,
    "mainCountry": "Nepal",
    "formattedAddress": "Gauri Sankar, Dolakha, जनकपुर अञ्चल, मध्यमाञ्चल विकास क्षेत्र, नेपाल",
    "rating": 0.0,
    "votes": 0
  },
  {
    "mountain": "Lenin Peak",
    "metres": "7134",
    "metresSearchable": "7134",
    "feet": "23406",
    "range": "Pamir Mountains",
    "locationAndNotes": "Tajikistan-Kyrgyzstan – #2 in Pamirs",
    "latitude": 39.3469841,
    "longitude": 72.8791874,
    "mainCountry": "Tajikistan",
    "formattedAddress": "Ленин Чокусу / Қуллаи Ибни Сино, Ноҳияи Мурғоб, Вилояти Мухтори Кӯҳистони Бадахшон, Tajikistan",
    "rating": 0.0,
    "votes": 0
  },
  {
    "mountain": "Api",
    "metres": "7132",
    "metresSearchable": "7132",
    "feet": "23399",
    "range": "Himalayas",
    "locationAndNotes": "Nepal",
    "latitude": 42.790523,
    "longitude": 1.7336697,
    "mainCountry": "France",
    "formattedAddress": "Appy, Foix, Ariège, Occitanie, France métropolitaine, 09250, France",
    "rating": 0.0,
    "votes": 0
  },
  {
    "mountain": "Pauhunri",
    "metres": "7128",
    "metresSearchable": "7128",
    "feet": "23386",
    "range": "Himalayas",
    "locationAndNotes": "India (Sikkim)/China",
    "latitude": 27.9514152,
    "longitude": 88.8427153,
    "mainCountry": "India",
    "formattedAddress": "Pauhunri 堡洪里峰, Chungthang, North Sikkim District, Sikkim, India",
    "rating": 0.0,
    "votes": 0
  },
  {
    "mountain": "Trisul",
    "metres": "7120",
    "metresSearchable": "7120",
    "feet": "23360",
    "range": "Himalayas",
    "locationAndNotes": "India (Uttarakhand)",
    "latitude": 45.8259287,
    "longitude": 9.2090369,
    "mainCountry": "Italy",
    "formattedAddress": "Trisul, Erba, CO, LOM, 22030, Italia",
    "rating": 0.0,
    "votes": 0
  },
  {
    "mountain": "Korzhenevskaya",
    "metres": "7105",
    "metresSearchable": "7105",
    "feet": "23310",
    "range": "Pamir Mountains",
    "locationAndNotes": "Tajikistan – #3 in Pamirs",
    "latitude": 39.0556584,
    "longitude": 72.0118984,
    "mainCountry": "Tajikistan",
    "formattedAddress": "Пик Корженевской, Ноҳияи Ҷиргатол, Ноҳияҳои тобеи ҷумҳурӣ, Тоҷикистон",
    "rating": 0.0,
    "votes": 0
  },
  {
    "mountain": "Lunpo Gangri",
    "metres": "7095",
    "metresSearchable": "7095",
    "feet": "23278",
    "range": "Himalayas (Gangdise)",
    "locationAndNotes": "China",
    "latitude": 29.833333,
    "longitude": 84.613333,
    "mainCountry": "China",
    "formattedAddress": "Lunpo Gangri, Tibet, China",
    "rating": 0.0,
    "votes": 0
  },
  {
    "mountain": "Satopanth",
    "metres": "7075",
    "metresSearchable": "7075",
    "feet": "23212",
    "range": "Himalayas",
    "locationAndNotes": "India (Uttarakhand)",
    "latitude": 30.8495321,
    "longitude": 79.214336,
    "mainCountry": "India",
    "formattedAddress": "Satopanth, Bhatwari, Uttarkashi, Uttarakhand, India",
    "rating": 0.0,
    "votes": 0
  },
  {
    "mountain": "Tirsuli",
    "metres": "7074",
    "metresSearchable": "7074",
    "feet": "23209",
    "range": "Himalayas",
    "locationAndNotes": "India (Uttarakhand)",
    "latitude": 30.5821786,
    "longitude": 80.0200339,
    "mainCountry": "India",
    "formattedAddress": "Tirsuli, Munsiari, Chamoli, Uttarakhand, India",
    "rating": 0.0,
    "votes": 0
  },
  {
    "mountain": "Dunagiri",
    "metres": "7066",
    "metresSearchable": "7066",
    "feet": "23182",
    "range": "Himalayas",
    "locationAndNotes": "India (Uttarakhand)",
    "latitude": 29.80316,
    "longitude": 79.45038,
    "mainCountry": "India",
    "formattedAddress": "Dunagiri, Dwarahat, Almora, Uttarakhand, India",
    "rating": 0.0,
    "votes": 0
  },
  {
    "mountain": "Kangto",
    "metres": "7060",
    "metresSearchable": "7060",
    "feet": "23163",
    "range": "Himalayas",
    "locationAndNotes": "India (Arunachal Pradesh)/China",
    "latitude": 27.8660198,
    "longitude": 92.5312014,
    "mainCountry": "China",
    "formattedAddress": "Kangtö, 卡达乡, མཚོ་སྣ་རྫོང་ / 错那县 / Cona, ལྷོ་ཁ་ས་ཁུལ། / 山南市 / Shannan, 西藏自治区, China 中国",
    "rating": 0.0,
    "votes": 0
  },
  {
    "mountain": "Nyegyi Kansang",
    "metres": "7047",
    "metresSearchable": "7047",
    "feet": "23120",
    "range": "Himalayas",
    "locationAndNotes": "India (Arunachal Pradesh)/China",
    "latitude": 27.936667,
    "longitude": 92.666667,
    "mainCountry": "China",
    "formattedAddress": "Nyegyi Kansang, India (Arunachal Pradesh)/China",
    "rating": 0.0,
    "votes": 0
  },
  {
    "mountain": "Link Sar",
    "metres": "7041",
    "metresSearchable": "7041",
    "feet": "23100",
    "range": "Karakoram",
    "locationAndNotes": "Pakistan",
    "latitude": 35.4439859,
    "longitude": 76.5960252,
    "mainCountry": "Pakistan",
    "formattedAddress": "Link Sar, Baltistān District, گلگت بلتستان, پاکستان",
    "rating": 0.0,
    "votes": 0
  },
  {
    "mountain": "Kezhen Peak",
    "metres": "7038",
    "metresSearchable": "7038",
    "feet": "23091",
    "range": "Karakoram",
    "locationAndNotes": "China (Xinjiang)",
    "latitude": 35.925,
    "longitude": 76.175,
    "mainCountry": "China",
    "formattedAddress": "Kezhen Peak, Xinjiang, China",
    "rating": 0.0,
    "votes": 0
  },
  {
    "mountain": "Shah Dhar",
    "metres": "7038",
    "metresSearchable": "7038",
    "feet": "23091",
    "range": "Hindu Kush",
    "locationAndNotes": "Afghanistan/Pakistan",
    "latitude": 36.6719574,
    "longitude": 72.2305374,
    "mainCountry": "Pakistan",
    "formattedAddress": "Shah Dhar, Chitrāl District, خیبر پښتونخوا, پاکستان",
    "rating": 0.0,
    "votes": 0
  },
  {
    "mountain": "Spantik",
    "metres": "7027",
    "metresSearchable": "7027",
    "feet": "23054",
    "range": "Karakoram",
    "locationAndNotes": "Pakistan",
    "latitude": 36.0569055,
    "longitude": 74.9642874,
    "mainCountry": "Pakistan",
    "formattedAddress": "Spantik, Gilgit District, گلگت بلتستان, پاکستان",
    "rating": 0.0,
    "votes": 0
  },
  {
    "mountain": "Khan Tengri",
    "metres": "7010",
    "metresSearchable": "7010",
    "feet": "22999",
    "range": "Tian Shan",
    "locationAndNotes": "Kyrgyzstan-Kazakhstan-China – #2 in Tian Shan",
    "latitude": 42.2108441,
    "longitude": 80.1744037,
    "mainCountry": "Kyrgyzstan",
    "formattedAddress": "Хан-Тенгри 汗腾格里峰, Иссык-Кульская область, Кыргызстан",
    "rating": 0.0,
    "votes": 0
  },
  {
    "mountain": "Machapuchare",
    "metres": "6993",
    "metresSearchable": "6993",
    "feet": "22943",
    "locationAndNotes": "Annapurna Himalaya, Nepal – Officially unclimbed (attempts not allowed)",
    "latitude": 28.4979796,
    "longitude": 83.9458756,
    "mainCountry": "Nepal",
    "formattedAddress": "Machapuchare, Machhapuchhre, कास्की, गण्डकी अञ्चल, पश्चिमाञ्चल विकास क्षेत्र, नेपाल",
    "rating": 0.0,
    "votes": 0
  },
  {
    "mountain": "Laila Peak (Haramosh Valley)",
    "metres": "6985",
    "metresSearchable": "6985",
    "feet": "22917",
    "locationAndNotes": "Karakoram, Pakistan",
    "latitude": 35.955814,
    "longitude": 74.945739,
    "mainCountry": "Pakistan",
    "formattedAddress": "Laila Peak (Haramosh Valley), Karakoram, Pakistan",
    "rating": 0.0,
    "votes": 0
  },
  {
    "mountain": "Kang Guru",
    "metres": "6981",
    "metresSearchable": "6981",
    "feet": "22904",
    "locationAndNotes": "Manaslu Himalaya, Nepal – 2005 avalanche kills 18",
    "latitude": 22.3404981,
    "longitude": 114.2053968,
    "mainCountry": "China",
    "formattedAddress": "藥師殿 Hall of Bhaisajya Guru, 志蓮道 Chi Lin Drive, 上元嶺 Sheung Yuen Leng, 鑽石山 Diamond Hill, 獅子山上村 Lion Rock Upper Village, 黃大仙區 Wong Tai Sin District, HK, China 中国",
    "rating": 0.0,
    "votes": 0
  },
  {
    "mountain": "Gasherbrum VI",
    "metres": "6979",
    "metresSearchable": "6979",
    "feet": "22897",
    "locationAndNotes": "Karakoram, Pakistan",
    "latitude": 35.7087518,
    "longitude": 76.6322231,
    "mainCountry": "Pakistan",
    "formattedAddress": "Gasherbrum VI, Baltistān District, گلگت بلتستان, پاکستان",
    "rating": 0.0,
    "votes": 0
  },
  {
    "mountain": "Karun Kuh",
    "metres": "6977",
    "metresSearchable": "6977",
    "feet": "22890",
    "locationAndNotes": "Karakoram, Pakistan",
    "latitude": 36.4344216,
    "longitude": 75.6727206322148,
    "mainCountry": "Pakistan",
    "formattedAddress": "Karun Kuh group, Baltistān District, گلگت بلتستان, پاکستان",
    "rating": 0.0,
    "votes": 0
  },
  {
    "mountain": "Avicenna Peak",
    "metres": "6974",
    "metresSearchable": "6974",
    "feet": "22881",
    "locationAndNotes": "Pamir Mountains, Tajikistan – #3 in Pamirs",
    "latitude": 39.3469841,
    "longitude": 72.8791874,
    "mainCountry": "Tajikistan",
    "formattedAddress": "Ленин Чокусу / Қуллаи Ибни Сино, Ноҳияи Мурғоб, Вилояти Мухтори Кӯҳистони Бадахшон, Tajikistan",
    "rating": 0.0,
    "votes": 0
  },
  {
    "mountain": "Ulugh Muztagh",
    "metres": "6973",
    "metresSearchable": "6973",
    "feet": "22877",
    "locationAndNotes": "Kunlun Mountains, Often misquoted as 7723 m",
    "latitude": 36.4129813,
    "longitude": 87.3842221,
    "mainCountry": "China",
    "formattedAddress": "木孜塔格山, 祁曼塔格乡, 若羌县, 巴音郭楞蒙古自治州, 新疆维吾尔自治区, 中国",
    "rating": 0.0,
    "votes": 0
  },
  {
    "mountain": "Aconcagua",
    "metres": "6962",
    "metresSearchable": "6962",
    "feet": "22841",
    "locationAndNotes": "Andes, Argentina – Highest in both the Western and Southern Hemispheres",
    "latitude": -32.6535552,
    "longitude": -70.0114833,
    "mainCountry": "Argentina",
    "formattedAddress": "Cerro Aconcagua, Distrito Las Cuevas, Departamento Las Heras, Mza., Argentina",
    "rating": 0.0,
    "votes": 0
  },
  {
    "mountain": "Napko Kangri",
    "metres": "6956",
    "metresSearchable": "6956",
    "feet": "22822",
    "locationAndNotes": "Karakoram, China",
    "latitude": 34.010025,
    "longitude": 77.499054,
    "mainCountry": "India",
    "formattedAddress": "Trail to Stok Kangri, Ruins, Leh District, Jammu and Kashmir, India",
    "rating": 0.0,
    "votes": 0
  },
  {
    "mountain": "Kedarnath (mountain)",
    "metres": "6940",
    "metresSearchable": "6940",
    "feet": "22769",
    "locationAndNotes": "Himalayas, India",
    "latitude": 30.7345609,
    "longitude": 79.0673204,
    "mainCountry": "India",
    "formattedAddress": "Kedarnath, Yatra Queue, Kedarnath, Ukhimath, Rudraprayag, Uttarakhand, India",
    "rating": 0.0,
    "votes": 0
  },
  {
    "mountain": "K7",
    "metres": "6934",
    "metresSearchable": "6934",
    "feet": "22749",
    "locationAndNotes": "Karakoram – Pakistan",
    "latitude": 50.9635155,
    "longitude": 5.0445706,
    "mainCountry": "Belgium",
    "formattedAddress": "Verdeelwerk K7, Diest, Leuven, Vlaams-Brabant, Vlaanderen, 3293, België - Belgique - Belgien",
    "rating": 0.0,
    "votes": 0
  },
  {
    "mountain": "Panchchuli",
    "metres": "6904",
    "metresSearchable": "6904",
    "feet": "22651",
    "locationAndNotes": "Himalayas, India",
    "latitude": 30.1874768,
    "longitude": 80.4696912,
    "mainCountry": "India",
    "formattedAddress": "Panchchuli V, Munsiari, Pithoragarh, Uttarakhand, India",
    "rating": 0.0,
    "votes": 0
  },
  {
    "mountain": "Thalay Sagar",
    "metres": "6904",
    "metresSearchable": "6904",
    "feet": "22651",
    "locationAndNotes": "Himalayas, India",
    "latitude": 30.8605548,
    "longitude": 78.9946855,
    "mainCountry": "India",
    "formattedAddress": "Thalay Sagar, Bhatwari, Uttarkashi, Uttarakhand, India",
    "rating": 0.0,
    "votes": 0
  },
  {
    "mountain": "Lunkho e Dosare",
    "metres": "6901",
    "metresSearchable": "6901",
    "feet": "22641",
    "locationAndNotes": "Hindu Kush, Afghanistan-Pakistan",
    "latitude": 36.7755556,
    "longitude": 72.3933333,
    "mainCountry": "Afghanistan",
    "formattedAddress": "Lunkho-e-Dosare, واخان, ولایت بدخشان, افغانستان",
    "rating": 0.0,
    "votes": 0
  },
  {
    "mountain": "Lunag Ri",
    "metres": "6895",
    "metresSearchable": "6895",
    "feet": "22621",
    "locationAndNotes": "Himalaya, Nepal-China",
    "latitude": 28.0535945,
    "longitude": 86.5500784,
    "mainCountry": "China",
    "formattedAddress": "Lunag Ri, དིང་རི་རྫོང་ / 定日县 / Tingri, གཞིས་ཀ་རྩེ་ས་ཁུལ་ / 日喀则市 / Shigatse, 西藏自治区, China 中国",
    "rating": 0.0,
    "votes": 0
  },
  {
    "mountain": "Ojos del Salado",
    "metres": "6891",
    "metresSearchable": "6891",
    "feet": "22608",
    "locationAndNotes": "Andes, Argentina-Chile – Highest volcano on Earth",
    "latitude": -33.13503465,
    "longitude": -71.5595957415233,
    "mainCountry": "Chile",
    "formattedAddress": "Ojos del Salado, Pinares de Curauma, Curauma, Valparaíso, Provincia de Valparaíso, Región de Valparaíso, Chile",
    "rating": 0.0,
    "votes": 0
  },
  {
    "mountain": "Siniolchu",
    "metres": "6888",
    "metresSearchable": "6888",
    "feet": "22598",
    "locationAndNotes": "Kangchenjunga Himalaya, India (Sikkim)",
    "latitude": 27.7108183,
    "longitude": 88.3182054,
    "mainCountry": "India",
    "formattedAddress": "Siniolchu, Chungthang, North Sikkim District, Sikkim, India",
    "rating": 0.0,
    "votes": 0
  },
  {
    "mountain": "Kanjiroba",
    "metres": "6883",
    "metresSearchable": "6883",
    "feet": "22582",
    "locationAndNotes": "Himalayas, Nepal {{Mountain elev row|Bairiga|6882|Kangri Garpo}",
    "latitude": 29.3759672,
    "longitude": 82.6378812,
    "mainCountry": "Nepal",
    "formattedAddress": "Kānjirobā, Kaigaun, डोल्पा, कर्णाली अञ्चल, मध्य-पश्चिमाञ्चल विकास क्षेत्र, नेपाल",
    "rating": 0.0,
    "votes": 0
  },
  {
    "mountain": "Koyo Zom",
    "metres": "6872",
    "metresSearchable": "6872",
    "feet": "22546",
    "locationAndNotes": "Hindu Kush, Pakistan",
    "latitude": 36.7303374,
    "longitude": 73.2396269,
    "mainCountry": "Pakistan",
    "formattedAddress": "Koyo Zom, Chitrāl District, خیبر پښتونخوا, پاکستان",
    "rating": 0.0,
    "votes": 0
  },
  {
    "mountain": "Nanda Kot",
    "metres": "6861",
    "metresSearchable": "6861",
    "feet": "22510",
    "locationAndNotes": "Himalayas, India (Uttarakhand)",
    "latitude": 30.2808425,
    "longitude": 80.0668524,
    "mainCountry": "India",
    "formattedAddress": "Nanda Kot, Munsiari, Pithoragarh, Uttarakhand, India",
    "rating": 0.0,
    "votes": 0
  },
  {
    "mountain": "Kubi Gangri",
    "metres": "6859",
    "metresSearchable": "6859",
    "feet": "22503",
    "locationAndNotes": "Himalayas, Nepal/China",
    "latitude": 29.765833,
    "longitude": 82.751667,
    "mainCountry": "China",
    "formattedAddress": "Kubi Gangri, China–Nepal border",
    "rating": 0.0,
    "votes": 0
  },
  {
    "mountain": "Angel Sar",
    "metres": "6858",
    "metresSearchable": "6858",
    "feet": "22500",
    "locationAndNotes": "Karakoram, Pakistan",
    "latitude": -33.6712231,
    "longitude": 18.9872966,
    "mainCountry": "South Africa",
    "formattedAddress": "Angel, Drakenstein Ward 6, Drakenstein Local Municipality, Cape Winelands District Municipality, Western Cape, 7654, South Africa",
    "rating": 0.0,
    "votes": 0
  },
  {
    "mountain": "Bhagirathi I",
    "metres": "6856",
    "metresSearchable": "6856",
    "feet": "22493",
    "locationAndNotes": "Himalayas, India (Uttarakhand)",
    "latitude": 30.8501531,
    "longitude": 79.1469149,
    "mainCountry": "India",
    "formattedAddress": "Bhagirathi 1, Bhatwari, Uttarkashi, Uttarakhand, India",
    "rating": 0.0,
    "votes": 0
  },
  {
    "mountain": "Jethi Bahurani",
    "metres": "6850",
    "metresSearchable": "6850",
    "feet": "22474",
    "locationAndNotes": "Himalayas, Nepal",
    "latitude": 29.8806741,
    "longitude": 81.0393354,
    "mainCountry": "Nepal",
    "formattedAddress": "Jethi Bahurani, Ghusa, दार्चुला (Darchula), महाकाली अञ्चल, सुदुर पश्चिमाञ्चल विकास क्षेत्र, नेपाल",
    "rating": 0.0,
    "votes": 0
  },
  {
    "mountain": "Chongra Peak",
    "metres": "6830",
    "metresSearchable": "6830",
    "feet": "22408",
    "locationAndNotes": "Nanga Parbat Himalaya, Pakistan",
    "latitude": 35.322694,
    "longitude": 74.6752012,
    "mainCountry": "Pakistan",
    "formattedAddress": "Chongra, Diāmir District, گلگت بلتستان, پاکستان",
    "rating": 0.0,
    "votes": 0
  },
  {
    "mountain": "Reo Purgyil",
    "metres": "6816",
    "metresSearchable": "6816",
    "feet": "22362",
    "locationAndNotes": "Western Himalaya, India border – Highest in Himachal Pradesh",
    "latitude": 31.8839899,
    "longitude": 78.7317028,
    "mainCountry": "India",
    "formattedAddress": "Reo Purgyil, Poo, Kinnaur, Himachal Pradesh, 什布奇山口地区, India",
    "rating": 0.0,
    "votes": 0
  },
  {
    "mountain": "Ama Dablam",
    "metres": "6812",
    "metresSearchable": "6812",
    "feet": "22349",
    "locationAndNotes": "Himalayas, Nepal (Khumbu)",
    "latitude": 50.89025,
    "longitude": 14.4089,
    "mainCountry": "Czech Republic",
    "formattedAddress": "Ama Dablam, Doubice, okres Děčín, Ústecký kraj, Severozápad, 40716, Česko",
    "rating": 0.0,
    "votes": 0
  },
  {
    "mountain": "Monte Pissis",
    "metres": "6795",
    "metresSearchable": "6795",
    "feet": "22293",
    "locationAndNotes": "Andes, Argentina – Third highest in Western Hemisphere",
    "latitude": -27.7551789,
    "longitude": -68.7992115,
    "mainCountry": "Argentina",
    "formattedAddress": "Monte Pissis, Municipio de Fiambalá, Departamento Tinogasta, CTM, K5340, Argentina",
    "rating": 0.0,
    "votes": 0
  },
  {
    "mountain": "Biarchedi",
    "metres": "6781",
    "metresSearchable": "6781",
    "feet": "22247",
    "locationAndNotes": "Karakoram, Pakistan",
    "latitude": 35.6765768,
    "longitude": 76.3942072,
    "mainCountry": "Pakistan",
    "formattedAddress": "Biarchedi Peak, Baltistān District, گلگت بلتستان, پاکستان",
    "rating": 0.0,
    "votes": 0
  },
  {
    "mountain": "Huascarán Sur",
    "metres": "6768",
    "metresSearchable": "6768",
    "feet": "22205",
    "locationAndNotes": "Andes, Peru – Highest",
    "latitude": -9.1212329,
    "longitude": -77.6043009,
    "mainCountry": "Peru",
    "formattedAddress": "Huascarán Sur, Yungay, Ancash, Perú",
    "rating": 0.0,
    "votes": 0
  },
  {
    "mountain": "Cerro Bonete",
    "metres": "6759",
    "metresSearchable": "6759",
    "feet": "22175",
    "locationAndNotes": "Andes, Argentina",
    "latitude": -54.6792944,
    "longitude": -68.1519976,
    "mainCountry": "Argentina",
    "formattedAddress": "Cerro Bonete, Departamento Ushuaia, TDF, Argentina",
    "rating": 0.0,
    "votes": 0
  },
  {
    "mountain": "Nevado Tres Cruces",
    "metres": "6749",
    "metresSearchable": "6749",
    "feet": "22142",
    "locationAndNotes": "Andes, Argentina/Chile",
    "latitude": -27.0988677,
    "longitude": -68.7781902,
    "mainCountry": "Chile",
    "formattedAddress": "Nevado Tres Cruces, Copiapó, Provincia de Copiapó, Región de Atacama",
    "rating": 0.0,
    "votes": 0
  },
  {
    "mountain": "Kawagarbo",
    "metres": "6740",
    "metresSearchable": "6740",
    "feet": "22113",
    "locationAndNotes": "Himalayas, China",
    "latitude": 28.4397063,
    "longitude": 98.6844028,
    "mainCountry": "China",
    "formattedAddress": "卡瓦格博, 德钦县, མཇོལ་རྫོང་། 德钦县, 迪庆州, 云南省, 中国",
    "rating": 0.0,
    "votes": 0
  },
  {
    "mountain": "Llullaillaco",
    "metres": "6739",
    "metresSearchable": "6739",
    "feet": "22110",
    "locationAndNotes": "Andes, Argentina/Chile",
    "latitude": -31.4352147,
    "longitude": -64.2302504,
    "mainCountry": "Argentina",
    "formattedAddress": "Llullaillaco, ATE, Córdoba, Municipio de Córdoba, Pedanía Capital, Departamento Capital, Cba., X5000, Argentina",
    "rating": 0.0,
    "votes": 0
  },
  {
    "mountain": "Cho Polu",
    "metres": "6735",
    "metresSearchable": "6735",
    "feet": "22096",
    "locationAndNotes": "Himalayas, Nepal (Khumbu)",
    "latitude": 27.9194539,
    "longitude": 86.9819868,
    "mainCountry": "Nepal",
    "formattedAddress": "Cho Polu, Makalu, सङ्खुवासभा, कोशी अञ्चल, पुर्वाञ्चल विकास क्षेत्र, नेपाल",
    "rating": 0.0,
    "votes": 0
  },
  {
    "mountain": "Kangju Kangri",
    "metres": "6725",
    "metresSearchable": "6725",
    "feet": "22064",
    "locationAndNotes": "Karakoram, India (Jammu and Kashmir)",
    "latitude": 33.7252614,
    "longitude": 78.5274372,
    "mainCountry": "India",
    "formattedAddress": "Kangju Kangri, Leh District, Jammu and Kashmir, India",
    "rating": 0.0,
    "votes": 0
  },
  {
    "mountain": "Changla",
    "metres": "6721",
    "metresSearchable": "6721",
    "feet": "22051",
    "locationAndNotes": "Himalayas, Nepal/China",
    "latitude": 30.302671,
    "longitude": 82.128344,
    "mainCountry": "China",
    "formattedAddress": "Changla, 霍尔乡, རྩ་མདའ་རྫོང་ / 普兰县 / Burang, མངའ་རིས་ས་ཁུལ་ / 阿里地区 / Ngari, 西藏自治区, China 中国",
    "rating": 0.0,
    "votes": 0
  },
  {
    "mountain": "Mercedario",
    "metres": "6720",
    "metresSearchable": "6720",
    "feet": "22047",
    "locationAndNotes": "Andes, Argentina",
    "latitude": -16.5157463,
    "longitude": -68.2258816,
    "mainCountry": "Bolivia",
    "formattedAddress": "Mercedario, El Alto, Provincia Pedro Domingo Murillo, La Paz, 00020, Bolivia",
    "rating": 0.0,
    "votes": 0
  },
  {
    "mountain": "Mount Pandim",
    "metres": "6691",
    "metresSearchable": "6691",
    "feet": "21952",
    "locationAndNotes": "Himalayas, India (Sikkim)",
    "latitude": 27.5773177,
    "longitude": 88.2171707,
    "mainCountry": "India",
    "formattedAddress": "Pandim, Gyalshing, West Sikkim District, Sikkim, India",
    "rating": 0.0,
    "votes": 0
  },
  {
    "mountain": "Num Ri",
    "metres": "6677",
    "metresSearchable": "6677",
    "feet": "21906",
    "locationAndNotes": "Himalayas, Nepal (Khumbu)",
    "latitude": 7.3435,
    "longitude": 8.9484,
    "mainCountry": "Nigeria",
    "formattedAddress": "Num, Gboko, Benue, Nigeria",
    "rating": 0.0,
    "votes": 0
  },
  {
    "mountain": "Lungser Kangri",
    "metres": "6666",
    "metresSearchable": "6666",
    "feet": "21870",
    "locationAndNotes": "Ladakh, Himalayas, India (Jammu and Kashmir)",
    "latitude": 32.9330104,
    "longitude": 78.4571556,
    "mainCountry": "India",
    "formattedAddress": "Lungser Kangri, Leh District, Jammu and Kashmir, India",
    "rating": 0.0,
    "votes": 0
  },
  {
    "mountain": "Meru Peak",
    "metres": "6660",
    "metresSearchable": "6660",
    "feet": "21850",
    "locationAndNotes": "Himalayas, India",
    "latitude": 30.8672137,
    "longitude": 79.0338225,
    "mainCountry": "India",
    "formattedAddress": "Meru Peak, Bhatwari, Uttarkashi, Uttarakhand, India",
    "rating": 0.0,
    "votes": 0
  },
  {
    "mountain": "Gul Lasht Zom",
    "metres": "6657",
    "metresSearchable": "6657",
    "feet": "21841",
    "locationAndNotes": "Hindu Kush, Pakistan",
    "latitude": 36.353,
    "longitude": 71.734,
    "mainCountry": "Pakistan",
    "formattedAddress": "Gul Lasht Zom, Hindu Kush, Pakistan",
    "rating": 0.0,
    "votes": 0
  },
  {
    "mountain": "Huascarán Norte",
    "metres": "6655",
    "metresSearchable": "6655",
    "feet": "21834",
    "locationAndNotes": "Andes, Peru",
    "latitude": -9.1017342,
    "longitude": -77.6212247,
    "mainCountry": "Peru",
    "formattedAddress": "Huascarán Norte, Yungay, Ancash, Perú",
    "rating": 0.0,
    "votes": 0
  },
  {
    "mountain": "Khumbutse",
    "metres": "6640",
    "metresSearchable": "6640",
    "feet": "21785",
    "locationAndNotes": "Himalayas, Nepal (Khumbu)/China – First peak west of Everest",
    "latitude": 28.0219052,
    "longitude": 86.872193,
    "mainCountry": "Nepal",
    "formattedAddress": "Khumbutse, Khumjung, सोलुखुम्बु, सगरमाथा अञ्चल, पुर्वाञ्चल विकास क्षेत्र, नेपाल",
    "rating": 0.0,
    "votes": 0
  },
  {
    "mountain": "Mount Kailash",
    "metres": "6638",
    "metresSearchable": "6638",
    "feet": "21778",
    "locationAndNotes": "Transhimalaya, western China – Officially unclimbed (attempts not allowed)",
    "latitude": 60.1581657,
    "longitude": 24.9213496,
    "mainCountry": "Finland",
    "formattedAddress": "Mount Kailash, 5, Tyynenmerenkatu, Jätkäsaari, Länsisatama, Eteläinen suurpiiri, Helsinki, Helsingin seutukunta, Uusimaa, Etelä-Suomi, Manner-Suomi, 00220, Suomi",
    "rating": 0.0,
    "votes": 0
  },
  {
    "mountain": "Yerupajá",
    "metres": "6635",
    "metresSearchable": "6635",
    "feet": "21768",
    "locationAndNotes": "Andes, Peru",
    "latitude": -10.2686236,
    "longitude": -76.9055636,
    "mainCountry": "Peru",
    "formattedAddress": "Yerupajá, Pacllón, Bolognesi, Ancash, Perú",
    "rating": 0.0,
    "votes": 0
  },
  {
    "mountain": "Nevado Tres Cruces Central",
    "metres": "6629",
    "metresSearchable": "6629",
    "feet": "21749",
    "locationAndNotes": "Andes, Chile",
    "latitude": -27.0988677,
    "longitude": -68.7781902,
    "mainCountry": "Chile",
    "formattedAddress": "Nevado Tres Cruces, Copiapó, Provincia de Copiapó, Región de Atacama",
    "rating": 0.0,
    "votes": 0
  },
  {
    "mountain": "Thamserku",
    "metres": "6623",
    "metresSearchable": "6623",
    "feet": "21729",
    "locationAndNotes": "Himalayas, Nepal (Khumbu)",
    "latitude": 27.7898577,
    "longitude": 86.785298,
    "mainCountry": "Nepal",
    "formattedAddress": "Thamserku, Khumjung, सोलुखुम्बु, सगरमाथा अञ्चल, पुर्वाञ्चल विकास क्षेत्र, नेपाल",
    "rating": 0.0,
    "votes": 0
  },
  {
    "mountain": "Geladaindong Peak",
    "metres": "6621",
    "metresSearchable": "6621",
    "feet": "21722",
    "locationAndNotes": "Tanggula, China (Qinghai)",
    "latitude": 33.4960687,
    "longitude": 91.1667381,
    "mainCountry": "China",
    "formattedAddress": "各拉丹冬峰, ཡན་ཤིས་ཕིན་ 雁石坪镇, 格尔木市, 海西州, 青海省, 中国",
    "rating": 0.0,
    "votes": 0
  },
  {
    "mountain": "Incahuasi",
    "metres": "6621",
    "metresSearchable": "6621",
    "feet": "21722",
    "locationAndNotes": "Andes, Argentina/Chile",
    "latitude": -20.2431202,
    "longitude": -67.6255614,
    "mainCountry": "Bolivia",
    "formattedAddress": "Incahuasi, Municipio Colcha K, Provincia Nor Lípez, Potosí, Bolivia",
    "rating": 0.0,
    "votes": 0
  },
  {
    "mountain": "Pangpoche",
    "metres": "6620",
    "metresSearchable": "6620",
    "feet": "21719",
    "locationAndNotes": "Himalayas, Nepal",
    "latitude": 28.6225,
    "longitude": 84.6775,
    "mainCountry": "Nepal",
    "formattedAddress": "Pangpoche, Nepal",
    "rating": 0.0,
    "votes": 0
  },
  {
    "mountain": "Manirang",
    "metres": "6597",
    "metresSearchable": "6597",
    "feet": "21644",
    "locationAndNotes": "Himalayas, India (Himachal Pradesh)",
    "latitude": 31.9536655,
    "longitude": 78.3644806,
    "mainCountry": "India",
    "formattedAddress": "Manirang, Poo, Kinnaur, Himachal Pradesh, India",
    "rating": 0.0,
    "votes": 0
  },
  {
    "mountain": "Nilkantha",
    "metres": "6596",
    "metresSearchable": "6596",
    "feet": "21640",
    "locationAndNotes": "Himalayas, India (Uttarakhand)",
    "latitude": 27.9063963,
    "longitude": 84.9136551773829,
    "mainCountry": "Nepal",
    "formattedAddress": "Nilkantha, Nilkantha Municipality, धादिङ, बागमती अञ्चल, मध्यमाञ्चल विकास क्षेत्र, 45100, नेपाल",
    "rating": 0.0,
    "votes": 0
  },
  {
    "mountain": "Phuparash Peak",
    "metres": "6574",
    "metresSearchable": "6574",
    "feet": "21568",
    "locationAndNotes": "Karakoram, Pakistan",
    "latitude": 36.0382378,
    "longitude": 74.8564625,
    "mainCountry": "Pakistan",
    "formattedAddress": "Phuparash, Gilgit District, گلگت بلتستان, پاکستان",
    "rating": 0.0,
    "votes": 0
  },
  {
    "mountain": "Sickle Moon Peak",
    "metres": "6574",
    "metresSearchable": "6574",
    "feet": "21568",
    "locationAndNotes": "Himalayas, India (Jammu and Kashmir)",
    "latitude": 37.262675,
    "longitude": -80.4684057,
    "mainCountry": "United States",
    "formattedAddress": "Brush Mountain, Montgomery County, Virginia, 24062, USA",
    "rating": 0.0,
    "votes": 0
  },
  {
    "mountain": "Buni Zom",
    "metres": "6542",
    "metresSearchable": "6542",
    "feet": "21463",
    "locationAndNotes": "Hindu Raj, Pakistan",
    "latitude": 36.1548018,
    "longitude": 72.3268593,
    "mainCountry": "Pakistan",
    "formattedAddress": "Buni Zom, Chitrāl District, خیبر پښتونخوا, پاکستان",
    "rating": 0.0,
    "votes": 0
  },
  {
    "mountain": "Nevado Sajama",
    "metres": "6542",
    "metresSearchable": "6542",
    "feet": "21463",
    "locationAndNotes": "Andes, Bolivia – Highest",
    "latitude": -18.1081113,
    "longitude": -68.8830426,
    "mainCountry": "Bolivia",
    "formattedAddress": "Nevado Sajama, Municipio Curahuara de Carangas, Provincia Sajama, Oruro, Bolivia",
    "rating": 0.0,
    "votes": 0
  },
  {
    "mountain": "Ghamubar Zom",
    "metres": "6518",
    "metresSearchable": "6518",
    "feet": "21385",
    "locationAndNotes": "Hindu Kush, Pakistan",
    "latitude": 36.5929104,
    "longitude": 73.3415937,
    "mainCountry": "Pakistan",
    "formattedAddress": "Ghamubar Zom, Gilgit District, گلگت بلتستان, پاکستان",
    "rating": 0.0,
    "votes": 0
  },
  {
    "mountain": "Singu Chuli",
    "metres": "6501",
    "metresSearchable": "6501",
    "feet": "21329",
    "locationAndNotes": "Annapurna Himalayas, Nepal",
    "latitude": 28.587222,
    "longitude": 83.883056,
    "mainCountry": "Nepal",
    "formattedAddress": "Singu Chuli, Annapurna, Nepal",
    "rating": 0.0,
    "votes": 0
  },
  {
    "mountain": "Taboche",
    "metres": "6501",
    "metresSearchable": "6501",
    "feet": "21329",
    "locationAndNotes": "Himalayas, Nepal (Khumbu)",
    "latitude": 27.8973138,
    "longitude": 86.7793702,
    "mainCountry": "Nepal",
    "formattedAddress": "Taboche, Khumjung, सोलुखुम्बु, सगरमाथा अञ्चल, पुर्वाञ्चल विकास क्षेत्र, नेपाल",
    "rating": 0.0,
    "votes": 0
  },
  {
    "mountain": "Cerro El Muerto",
    "metres": "6488",
    "metresSearchable": "6488",
    "feet": "21286",
    "locationAndNotes": "Andes, Argentina/Chile",
    "latitude": 9.8887441,
    "longitude": -67.9468775,
    "mainCountry": "Venezuela",
    "formattedAddress": "Cerro El Muerto, Tocuyito, Distrito Carlos Arvelo, Carabobo, Venezuela",
    "rating": 0.0,
    "votes": 0
  },
  {
    "mountain": "Mera Peak",
    "metres": "6476",
    "metresSearchable": "6476",
    "feet": "21247",
    "locationAndNotes": "Himalayas, Nepal (Khumbu)",
    "latitude": 27.7098398,
    "longitude": 86.8686622,
    "mainCountry": "Nepal",
    "formattedAddress": "Mera Peak, Bung, सोलुखुम्बु, सगरमाथा अञ्चल, पुर्वाञ्चल विकास क्षेत्र, नेपाल",
    "rating": 0.0,
    "votes": 0
  },
  {
    "mountain": "Hiunchuli",
    "metres": "6441",
    "metresSearchable": "6441",
    "feet": "21132",
    "locationAndNotes": "Annapurna Himalaya, Nepal",
    "latitude": 29.3686508,
    "longitude": 82.7780545,
    "mainCountry": "Nepal",
    "formattedAddress": "Hiunchuli, Kaigaun, डोल्पा, कर्णाली अञ्चल, मध्य-पश्चिमाञ्चल विकास क्षेत्र, नेपाल",
    "rating": 0.0,
    "votes": 0
  },
  {
    "mountain": "Cholatse",
    "metres": "6440",
    "metresSearchable": "6440",
    "feet": "21129",
    "locationAndNotes": "Himalayas, Nepal (Khumbu)",
    "latitude": 27.9190402,
    "longitude": 86.7648644,
    "mainCountry": "Nepal",
    "formattedAddress": "Cholatse, Khumjung, सोलुखुम्बु, सगरमाथा अञ्चल, पुर्वाञ्चल विकास क्षेत्र, नेपाल",
    "rating": 0.0,
    "votes": 0
  },
  {
    "mountain": "Illimani",
    "metres": "6438",
    "metresSearchable": "6438",
    "feet": "21122",
    "locationAndNotes": "Andes, Bolivia",
    "latitude": -16.654999,
    "longitude": -67.783661,
    "mainCountry": "Bolivia",
    "formattedAddress": "Illimani, Palca, Provincia Pedro Domingo Murillo, La Paz, Bolivia",
    "rating": 0.0,
    "votes": 0
  },
  {
    "mountain": "Ancohuma",
    "metres": "6427",
    "metresSearchable": "6427",
    "feet": "21086",
    "locationAndNotes": "Andes, Bolivia",
    "latitude": -15.8541396,
    "longitude": -68.5408337,
    "mainCountry": "Bolivia",
    "formattedAddress": "Ancohuma, Municipio Sorata, Provincia Larecaja, La Paz, Bolivia",
    "rating": 0.0,
    "votes": 0
  },
  {
    "mountain": "Coropuna",
    "metres": "6425",
    "metresSearchable": "6425",
    "feet": "21079",
    "locationAndNotes": "Andes, Peru",
    "latitude": -38.7174566,
    "longitude": -72.6179153,
    "mainCountry": "Chile",
    "formattedAddress": "Coropuna, Villa Padre Hurtado, Fundo Esperanza, Temuco, Provincia de Cautín, Región de la Araucanía, 4800601, Chile",
    "rating": 0.0,
    "votes": 0
  },
  {
    "mountain": "Antofalla",
    "metres": "6409",
    "metresSearchable": "6409",
    "feet": "21027",
    "locationAndNotes": "Andes, Argentina",
    "latitude": -25.5168206,
    "longitude": -67.6190001,
    "mainCountry": "Argentina",
    "formattedAddress": "Antofalla, Municipio de Antofagasta de la Sierra, Departamento Antofagasta de la Sierra, CTM, K4705, Argentina",
    "rating": 0.0,
    "votes": 0
  },
  {
    "mountain": "Kang Yatze",
    "metres": "6400",
    "metresSearchable": "6400",
    "feet": "20997",
    "locationAndNotes": "Ladakh, Himalayas, India (Jammu and Kashmir)",
    "latitude": 33.748507,
    "longitude": 77.5568418,
    "mainCountry": "India",
    "formattedAddress": "Kang Yatse I, Leh, Leh District, Jammu and Kashmir, India",
    "rating": 0.0,
    "votes": 0
  },
  {
    "mountain": "Huandoy",
    "metres": "6395",
    "metresSearchable": "6395",
    "feet": "20981",
    "locationAndNotes": "Andes, Peru",
    "latitude": -9.0348688,
    "longitude": -77.6698177,
    "mainCountry": "Peru",
    "formattedAddress": "Huandoy, Yungay, Ancash, Perú",
    "rating": 0.0,
    "votes": 0
  },
  {
    "mountain": "Ausangate",
    "metres": "6384",
    "metresSearchable": "6384",
    "feet": "20945",
    "locationAndNotes": "Andes, Peru",
    "latitude": -13.7890748,
    "longitude": -71.2299013,
    "mainCountry": "Peru",
    "formattedAddress": "Ausangate, Ocongate, Quispicanchi, Cusco, Perú",
    "rating": 0.0,
    "votes": 0
  },
  {
    "mountain": "Illampu",
    "metres": "6368",
    "metresSearchable": "6368",
    "feet": "20892",
    "locationAndNotes": "Andes, Bolivia",
    "latitude": -15.8161688,
    "longitude": -68.5432755,
    "mainCountry": "Bolivia",
    "formattedAddress": "Illampu, Municipio Sorata, Provincia Larecaja, La Paz, Bolivia",
    "rating": 0.0,
    "votes": 0
  },
  {
    "mountain": "Kusum Kangguru",
    "metres": "6367",
    "metresSearchable": "6367",
    "feet": "20889",
    "locationAndNotes": "Himalayas, Nepal (Khumbu)",
    "latitude": 27.7322274,
    "longitude": 86.791863,
    "mainCountry": "Nepal",
    "formattedAddress": "Kusum Kangguru, Chaurikharka, सोलुखुम्बु, सगरमाथा अञ्चल, पुर्वाञ्चल विकास क्षेत्र, नेपाल",
    "rating": 0.0,
    "votes": 0
  },
  {
    "mountain": "Kinnaur Kailash",
    "metres": "6349",
    "metresSearchable": "6349",
    "feet": "20830",
    "locationAndNotes": "Himalayas, Kinnaur, India (Himachal Pradesh)",
    "latitude": 31.4301258,
    "longitude": 78.261568,
    "mainCountry": "India",
    "formattedAddress": "Mount Kailash, Sangla Chitkul Road, Sangla, Kinnaur, Himachal Pradesh, India",
    "rating": 0.0,
    "votes": 0
  },
  {
    "mountain": "Parinaquta",
    "metres": "6348",
    "metresSearchable": "6348",
    "feet": "20827",
    "locationAndNotes": "Andes, Bolivia/Chile",
    "latitude": -18.166,
    "longitude": -69.142,
    "mainCountry": "Chile",
    "formattedAddress": "Parinaquta, Bolivia – Chile border",
    "rating": 0.0,
    "votes": 0
  },
  {
    "mountain": "Siula Grande",
    "metres": "6344",
    "metresSearchable": "6344",
    "feet": "20814",
    "locationAndNotes": "Andes, Peru",
    "latitude": -10.2947382,
    "longitude": -76.8916734,
    "mainCountry": "Peru",
    "formattedAddress": "Siula Grande, Copa, Cajatambo, Lima, Perú",
    "rating": 0.0,
    "votes": 0
  },
  {
    "mountain": "Bamba Dhura",
    "metres": "6334",
    "metresSearchable": "6334",
    "feet": "20781",
    "locationAndNotes": "Himalayas, India (Uttarakhand)",
    "latitude": 30.4391893,
    "longitude": 80.2840555,
    "mainCountry": "India",
    "formattedAddress": "Bamba Dhura, Munsiari, Pithoragarh, Uttarakhand, India",
    "rating": 0.0,
    "votes": 0
  },
  {
    "mountain": "Ampato",
    "metres": "6288",
    "metresSearchable": "6288",
    "feet": "20630",
    "locationAndNotes": "Andes, Peru",
    "latitude": -15.8204983,
    "longitude": -71.8801656,
    "mainCountry": "Peru",
    "formattedAddress": "Ampato, Lluta, Caylloma, Arequipa, Perú",
    "rating": 0.0,
    "votes": 0
  },
  {
    "mountain": "Amne Machin",
    "metres": "6282",
    "metresSearchable": "6282",
    "feet": "20610",
    "locationAndNotes": "Kunlun Mountains, China (Qinghai)",
    "latitude": 34.7661591,
    "longitude": 99.473041,
    "mainCountry": "China",
    "formattedAddress": "ཨ་མྱིས་རྨ་ཆེན། 阿尼玛卿山, རྨ་ཆེན་རྫོང་ 玛沁县, 果洛州, 青海省, 中国",
    "rating": 0.0,
    "votes": 0
  },
  {
    "mountain": "Pomerape",
    "metres": "6282",
    "metresSearchable": "6282",
    "feet": "20610",
    "locationAndNotes": "Andes, Bolivia/Chile",
    "latitude": -18.1281428,
    "longitude": -69.1291714,
    "mainCountry": "Chile",
    "formattedAddress": "Volcán Pomerape, Putre, Provincia de Parinacota, Región de Arica y Parinacota",
    "rating": 0.0,
    "votes": 0
  },
  {
    "mountain": "Salcantay",
    "metres": "6271",
    "metresSearchable": "6271",
    "feet": "20574",
    "locationAndNotes": "Andes, Peru",
    "latitude": -12.2010992,
    "longitude": -76.9821673,
    "mainCountry": "Peru",
    "formattedAddress": "Salcantay, Los Huertos de Villa, Chorrillos, Lima, 15067, Perú",
    "rating": 0.0,
    "votes": 0
  },
  {
    "mountain": "Chimborazo",
    "metres": "6267",
    "metresSearchable": "6267",
    "feet": "20561",
    "locationAndNotes": "Andes, Ecuador – Furthest point from Earth's center",
    "latitude": -1.4680988,
    "longitude": -78.8155589,
    "mainCountry": "Ecuador",
    "formattedAddress": "Chimborazo, San Andrés, Guano, Chimborazo, Ecuador",
    "rating": 0.0,
    "votes": 0
  },
  {
    "mountain": "Mount Siguniang",
    "metres": "6250",
    "metresSearchable": "6250",
    "feet": "20505",
    "locationAndNotes": "Qionglai Mountains, China (Sichuan)",
    "latitude": 31.1992673,
    "longitude": 102.8939535,
    "mainCountry": "China",
    "formattedAddress": "四姑娘山, 朴头乡, བཀྲ་ཤིང་གླིང་༼ལི་རྫོང་༽ / 理县 / Li, རྔ་བ་བོད་རིགས་ཆ་བ༹ང་རིགས་རང་སྐྱོང་ཁུལ་ 阿坝藏族羌族自治州, 四川省, 中国",
    "rating": 0.0,
    "votes": 0
  },
  {
    "mountain": "Grid Nie Mountain",
    "metres": "6224",
    "metresSearchable": "6224",
    "feet": "20420",
    "locationAndNotes": "Hengduan Mountains, China (Sichuan)",
    "latitude": 33.4072696,
    "longitude": -112.0735495,
    "mainCountry": "United States",
    "formattedAddress": "Grid, South Central Avenue, South Phoenix, South Mountain, Phoenix, Maricopa County, Arizona, 85034-5120, USA",
    "rating": 0.0,
    "votes": 0
  },
  {
    "mountain": "Yuzhu Peak",
    "metres": "6224",
    "metresSearchable": "6224",
    "feet": "20420",
    "locationAndNotes": "Kunlun Mountains, China (Qinghai)",
    "latitude": 35.652509,
    "longitude": 94.250761,
    "mainCountry": "China",
    "formattedAddress": "玉珠峰, ཆུ་དམར་ལེབ་རྫོང 曲麻莱县, 玉树州, 青海省, 中国",
    "rating": 0.0,
    "votes": 0
  },
  {
    "mountain": "Genyen Massif",
    "metres": "6204",
    "metresSearchable": "6204",
    "feet": "20354",
    "locationAndNotes": "Shaluli Range, China (Sichuan)",
    "latitude": 29.84,
    "longitude": 99.7,
    "mainCountry": "China",
    "formattedAddress": "Genyen Massif, Shaluli Range, China (Sichuan)",
    "rating": 0.0,
    "votes": 0
  },
  {
    "mountain": "Kongde Ri",
    "metres": "6187",
    "metresSearchable": "6187",
    "feet": "20299",
    "locationAndNotes": "Himalayas, Nepal (Khumbu)",
    "latitude": 27.7805256,
    "longitude": 86.7000754,
    "mainCountry": "Nepal",
    "formattedAddress": "Kongde, new Hillary Bridge (built 2013), Khumjung, सोलुखुम्बु, सगरमाथा अञ्चल, पुर्वाञ्चल विकास क्षेत्र, 56002, नेपाल",
    "rating": 0.0,
    "votes": 0
  },
  {
    "mountain": "Aucanquilcha",
    "metres": "6176",
    "metresSearchable": "6176",
    "feet": "20262",
    "locationAndNotes": "Andes, Chile",
    "latitude": -21.2,
    "longitude": -68.466667,
    "mainCountry": "Chile",
    "formattedAddress": "Aucanquilcha, Ollagüe, Provincia de El Loa, Región de Antofagasta, Chile",
    "rating": 0.0,
    "votes": 0
  },
  {
    "mountain": "Imja Tse",
    "metres": "6189",
    "metresSearchable": "6189",
    "feet": "20305",
    "locationAndNotes": "Himalayas, Nepal (Khumbu)",
    "latitude": 27.9200801,
    "longitude": 86.9346925,
    "mainCountry": "Nepal",
    "formattedAddress": "Island Peak, Khumjung, सोलुखुम्बु, सगरमाथा अञ्चल, पुर्वाञ्चल विकास क्षेत्र, नेपाल",
    "rating": 0.0,
    "votes": 0
  },
  {
    "mountain": "Denali (Mt. McKinley)",
    "metres": "6168",
    "metresSearchable": "6168",
    "feet": "20236",
    "locationAndNotes": "Alaska Range, United States (Alaska) – Highest in North America",
    "latitude": 63.069115,
    "longitude": -151.0062395,
    "mainCountry": "United States",
    "formattedAddress": "Denali, Alaska, USA",
    "rating": 0.0,
    "votes": 0
  },
  {
    "mountain": "Stok Kangri",
    "metres": "6137",
    "metresSearchable": "6137",
    "feet": "20135",
    "locationAndNotes": "Himalayas, India (Jammu and Kashmir)",
    "latitude": 33.9862911,
    "longitude": 77.4421487,
    "mainCountry": "India",
    "formattedAddress": "Stok Kangri, Leh, Leh District, Jammu and Kashmir, India",
    "rating": 0.0,
    "votes": 0
  },
  {
    "mountain": "Lobuche",
    "metres": "6119",
    "metresSearchable": "6119",
    "feet": "20075",
    "locationAndNotes": "Himalayas, Nepal (Khumbu)",
    "latitude": 27.9072165,
    "longitude": 86.8101901,
    "mainCountry": "Nepal",
    "formattedAddress": "Lobuche, Khumjung, सोलुखुम्बु, सगरमाथा अञ्चल, पुर्वाञ्चल विकास क्षेत्र, 4, नेपाल",
    "rating": 0.0,
    "votes": 0
  },
  {
    "mountain": "Marmolejo",
    "metres": "6108",
    "metresSearchable": "6108",
    "feet": "20039",
    "locationAndNotes": "Andes, Argentina/Chile",
    "latitude": 38.079566,
    "longitude": -4.16483912109021,
    "mainCountry": "Spain",
    "formattedAddress": "Marmolejo, Jaén, Andalucía, España",
    "rating": 0.0,
    "votes": 0
  },
  {
    "mountain": "Laila Peak (Hushe Valley)",
    "metres": "6096",
    "metresSearchable": "6096",
    "feet": "20000",
    "locationAndNotes": "Karakoram, Pakistan",
    "latitude": 35.591222,
    "longitude": 76.405417,
    "mainCountry": "Pakistan",
    "formattedAddress": "Laila Peak (Hushe Valley), Gilgit-Baltistan, Pakistan",
    "rating": 0.0,
    "votes": 0
  },
  {
    "mountain": "Pisang Peak",
    "metres": "6091",
    "metresSearchable": "6091",
    "feet": "19984",
    "locationAndNotes": "Annapurna Himalaya, Nepal",
    "latitude": 28.6490051,
    "longitude": 84.1880793,
    "mainCountry": "Nepal",
    "formattedAddress": "Pisang Peak, Pasang, मनाङ (Manang), गण्डकी अञ्चल, पश्चिमाञ्चल विकास क्षेत्र, नेपाल",
    "rating": 0.0,
    "votes": 0
  },
  {
    "mountain": "Huayna Potosí",
    "metres": "6088",
    "metresSearchable": "6088",
    "feet": "19974",
    "locationAndNotes": "Andes, Bolivia",
    "latitude": -16.2624028,
    "longitude": -68.1539317,
    "mainCountry": "Bolivia",
    "formattedAddress": "Huayna Potosí, La Paz, Provincia Pedro Domingo Murillo, La Paz, Bolivia",
    "rating": 0.0,
    "votes": 0
  },
  {
    "mountain": "Aracar",
    "metres": "6082",
    "metresSearchable": "6082",
    "feet": "19954",
    "locationAndNotes": "Andes, Argentina",
    "latitude": -24.2899349,
    "longitude": -67.7831647,
    "mainCountry": "Argentina",
    "formattedAddress": "Volcán Aracar, Municipio de Tolar Grande, Los Andes, SA, Argentina",
    "rating": 0.0,
    "votes": 0
  },
  {
    "mountain": "Chachakumani",
    "metres": "6074",
    "metresSearchable": "6074",
    "feet": "19928",
    "locationAndNotes": "Andes, Bolivia",
    "latitude": -15.987222,
    "longitude": -68.383056,
    "mainCountry": "Bolivia",
    "formattedAddress": "Chachakumani, Andes, Bolivia",
    "rating": 0.0,
    "votes": 0
  },
  {
    "mountain": "Chachani",
    "metres": "6057",
    "metresSearchable": "6057",
    "feet": "19872",
    "locationAndNotes": "Andes, Peru",
    "latitude": -16.1939577,
    "longitude": -71.5316353,
    "mainCountry": "Peru",
    "formattedAddress": "Chachani, Yura, Arequipa, Perú",
    "rating": 0.0,
    "votes": 0
  },
  {
    "mountain": "Mianzimu",
    "metres": "6054",
    "metresSearchable": "6054",
    "feet": "19862",
    "locationAndNotes": "Yunnan, China",
    "latitude": 28.3358326,
    "longitude": 98.7429118,
    "mainCountry": "China",
    "formattedAddress": "Mianzimu, Yunnan, China",
    "rating": 0.0,
    "votes": 0
  },
  {
    "mountain": "Acotango",
    "metres": "6052",
    "metresSearchable": "6052",
    "feet": "19856",
    "locationAndNotes": "Andes, Bolivia/Chile",
    "latitude": -33.5387144,
    "longitude": -70.7829607,
    "mainCountry": "Chile",
    "formattedAddress": "Acotango, Población Los Héroes, Ciudad Satélite, Maipú, Provincia de Santiago, Región Metropolitana de Santiago, 9252307, Chile",
    "rating": 0.0,
    "votes": 0
  },
  {
    "mountain": "Socompa",
    "metres": "6051",
    "metresSearchable": "6051",
    "feet": "19852",
    "locationAndNotes": "Andes, Argentina/Chile",
    "latitude": -24.4505686,
    "longitude": -68.2904175,
    "mainCountry": "Chile",
    "formattedAddress": "Socompa, Antofagasta, Provincia de Antofagasta, Región de Antofagasta, Chile",
    "rating": 0.0,
    "votes": 0
  },
  {
    "mountain": "Minglik Sar",
    "metres": "6050",
    "metresSearchable": "6050",
    "feet": "19849",
    "locationAndNotes": "Karakoram, Pakistan",
    "latitude": 36.4733814,
    "longitude": 75.6896566,
    "mainCountry": "Pakistan",
    "formattedAddress": "Minglik Sar, Karakoram, Pakistan",
    "rating": 0.0,
    "votes": 0
  },
  {
    "mountain": "Acamarachi",
    "metres": "6046",
    "metresSearchable": "6046",
    "feet": "19836",
    "locationAndNotes": "Andes, Chile",
    "latitude": -22.9115805,
    "longitude": -68.2004558,
    "mainCountry": "Chile",
    "formattedAddress": "Acamarachi, 282-C, Caracoles, Vilama, San Pedro de Atacama, Provincia de El Loa, Región de Antofagasta, 9660000, Chile",
    "rating": 0.0,
    "votes": 0
  },
  {
    "mountain": "Shayaz",
    "metres": "6026",
    "metresSearchable": "6026",
    "feet": "19770",
    "locationAndNotes": "Hindu Kush, Pakistan",
    "latitude": 36.648333,
    "longitude": 72.828333,
    "mainCountry": "Pakistan",
    "formattedAddress": "Shayaz, Khyber Pakhtunkhwa, Pakistan",
    "rating": 0.0,
    "votes": 0
  },
  {
    "mountain": "Hualca Hualca",
    "metres": "6025",
    "metresSearchable": "6025",
    "feet": "19767",
    "locationAndNotes": "Andes, Peru",
    "latitude": -10.7210216,
    "longitude": -75.6745483,
    "mainCountry": "Peru",
    "formattedAddress": "Tingo Hualca, Pasco, Perú",
    "rating": 0.0,
    "votes": 0
  },
  {
    "mountain": "Uturunku",
    "metres": "6020",
    "metresSearchable": "6020",
    "feet": "19751",
    "locationAndNotes": "Andes, Bolivia",
    "latitude": -22.264277,
    "longitude": -67.1870291,
    "mainCountry": "Bolivia",
    "formattedAddress": "Uturuncu, Municipio San Pablo de Lipez, Provincia Sur Lípez, Potosí, Bolivia",
    "rating": 0.0,
    "votes": 0
  },
  {
    "mountain": "Mitre Peak",
    "metres": "6010",
    "metresSearchable": "6010",
    "feet": "19718",
    "locationAndNotes": "Karakoram, Pakistan",
    "latitude": 30.4632153,
    "longitude": -103.7868429,
    "mainCountry": "United States",
    "formattedAddress": "Mitre Peak, Jeff Davis County, Texas, USA",
    "rating": 0.0,
    "votes": 0
  },
  {
    "mountain": "Laila Peak",
    "metres": "5971",
    "metresSearchable": "5971",
    "feet": "19590",
    "range": "Himalaya",
    "locationAndNotes": "Pakistan",
    "latitude": 35.5939072,
    "longitude": 76.4125994,
    "mainCountry": "Pakistan",
    "formattedAddress": "Laila Peak, Baltistān District, گلگت بلتستان, پاکستان",
    "rating": 0.0,
    "votes": 0
  },
  {
    "mountain": "Mount Logan",
    "metres": "5959",
    "metresSearchable": "5959",
    "feet": "19551",
    "range": "Saint Elias Mountains",
    "locationAndNotes": "Yukon, Canada – Highest in Canada",
    "latitude": 60.5678461,
    "longitude": -140.4056911,
    "mainCountry": "Canada",
    "formattedAddress": "Mount Logan, Yukon, Canada",
    "rating": 0.0,
    "votes": 0
  },
  {
    "mountain": "Alpamayo",
    "metres": "5947",
    "metresSearchable": "5947",
    "feet": "19511",
    "range": "Andes",
    "locationAndNotes": "Peru",
    "latitude": -8.8789338,
    "longitude": -77.6536055,
    "mainCountry": "Peru",
    "formattedAddress": "Alpamayo, Santa Cruz, Huaylas, Ancash, Perú",
    "rating": 0.0,
    "votes": 0
  },
  {
    "mountain": "Cerro Lípez",
    "metres": "5929",
    "metresSearchable": "5929",
    "feet": "19452",
    "range": "Andes",
    "locationAndNotes": "Bolivia",
    "latitude": -21.9435893,
    "longitude": -66.8616178,
    "mainCountry": "Bolivia",
    "formattedAddress": "Cerro Lípez, Municipio San Pablo de Lipez, Provincia Sur Lípez, Potosí, Bolivia",
    "rating": 0.0,
    "votes": 0
  },
  {
    "mountain": "Licancabur",
    "metres": "5920",
    "metresSearchable": "5920",
    "feet": "19423",
    "range": "Andes",
    "locationAndNotes": "Bolivia/Chile",
    "latitude": -34.1375756,
    "longitude": -70.7357213,
    "mainCountry": "Chile",
    "formattedAddress": "Licancabur, Los Álamos de La Cruz, Colonia Santa Elena, Rancagua, Provincia de Cachapoal, Región del Libertador General Bernardo O'Higgins, 2850546, Chile",
    "rating": 0.0,
    "votes": 0
  },
  {
    "mountain": "Falak Sar",
    "metres": "5918",
    "metresSearchable": "5918",
    "feet": "19416",
    "range": "Hindu Kush",
    "locationAndNotes": "Pakistan",
    "latitude": 35.682778,
    "longitude": 72.785278,
    "mainCountry": "Pakistan",
    "formattedAddress": "Falak Sar, Ushu Valley, Swat-Kohistan, Pakistan",
    "rating": 0.0,
    "votes": 0
  },
  {
    "mountain": "Cotopaxi",
    "metres": "5897",
    "metresSearchable": "5897",
    "feet": "19347",
    "range": "Andes",
    "locationAndNotes": "Ecuador – Second highest in Ecuador",
    "latitude": -0.6805954,
    "longitude": -78.4377643,
    "mainCountry": "Ecuador",
    "formattedAddress": "Cotopaxi, Machachi, Mejía, Pichincha, Ecuador",
    "rating": 0.0,
    "votes": 0
  },
  {
    "mountain": "Mount Kilimanjaro",
    "metres": "5895",
    "metresSearchable": "5895",
    "feet": "19341",
    "range": "Eastern Rift Mountains",
    "locationAndNotes": "Tanzania – Highest in Africa",
    "latitude": 14.6385232,
    "longitude": 121.1346961,
    "mainCountry": "Philippines",
    "formattedAddress": "Mt. Kilimanjaro, Palmera Woodlands Clubhouse, Cupang, Antipolo, Rizal, Calabarzon, 1873, Philippines",
    "rating": 0.0,
    "votes": 0
  },
  {
    "mountain": "Hkakabo Razi",
    "metres": "5881",
    "metresSearchable": "5881",
    "feet": "19295",
    "range": "Himalayas",
    "locationAndNotes": "Myanmar – Highest in Myanmar and Southeast Asia",
    "latitude": 28.3279581,
    "longitude": 97.5349735,
    "mainCountry": "Myanmar",
    "formattedAddress": "ခါကာဘိုရာဇီ, နောင်မွန်း, ပူတာအိုခရိုင်, ကချင်ပြည်နယ် (Kachin), မြန်မာ",
    "rating": 0.0,
    "votes": 0
  },
  {
    "mountain": "San José",
    "metres": "5856",
    "metresSearchable": "5856",
    "feet": "19213",
    "range": "Andes",
    "locationAndNotes": "Chile",
    "latitude": 37.3361905,
    "longitude": -121.8905833,
    "mainCountry": "United States",
    "formattedAddress": "San Jose, Santa Clara County, California, United States of America",
    "rating": 0.0,
    "votes": 0
  },
  {
    "mountain": "El Misti",
    "metres": "5822",
    "metresSearchable": "5822",
    "feet": "19101",
    "range": "Andes",
    "locationAndNotes": "Peru",
    "latitude": -16.2991787,
    "longitude": -71.405777,
    "mainCountry": "Peru",
    "formattedAddress": "El Misti, Chiguata, Arequipa, Perú",
    "rating": 0.0,
    "votes": 0
  },
  {
    "mountain": "Altun Shan",
    "metres": "5798",
    "metresSearchable": "5798",
    "feet": "19022",
    "range": "Altyn-Tagh",
    "locationAndNotes": "Gansu, China",
    "latitude": 39.2510129,
    "longitude": 93.6970188,
    "mainCountry": "China",
    "formattedAddress": "Altun Shan, 阿克旗乡, 阿克塞县, 酒泉市 / Jiuquan, 甘肃省, 736400, 中国",
    "rating": 0.0,
    "votes": 0
  },
  {
    "mountain": "Cayambe",
    "metres": "5790",
    "metresSearchable": "5790",
    "feet": "18996",
    "range": "Andes",
    "locationAndNotes": "Ecuador – Third highest in Ecuador",
    "latitude": 0.0410644,
    "longitude": -78.1429536,
    "mainCountry": "Ecuador",
    "formattedAddress": "Cayambe, Pichincha, Ecuador",
    "rating": 0.0,
    "votes": 0
  },
  {
    "mountain": "Pico Cristóbal Colón",
    "metres": "5776",
    "metresSearchable": "5776",
    "feet": "18950",
    "range": "Sierra Nevada de Santa Marta",
    "locationAndNotes": "Colombia – Highest coastal mountain",
    "latitude": 10.8389605,
    "longitude": -73.6866318,
    "mainCountry": "Colombia",
    "formattedAddress": "Pico Cristóbal Colón, Santa Marta, Magdalena, Colombia",
    "rating": 0.0,
    "votes": 0
  },
  {
    "mountain": "Antisana",
    "metres": "5753",
    "metresSearchable": "5753",
    "feet": "18875",
    "range": "Andes",
    "locationAndNotes": "Ecuador",
    "latitude": -0.4847751,
    "longitude": -78.1363905762648,
    "mainCountry": "Ecuador",
    "formattedAddress": "Nevado Antisana, Cuyuja, Cantón Quijos, Napo, Ecuador",
    "rating": 0.0,
    "votes": 0
  },
  {
    "mountain": "Nevado Pisco",
    "metres": "5752",
    "metresSearchable": "5752",
    "feet": "18871",
    "range": "Andes",
    "locationAndNotes": "Peru",
    "latitude": -9.0231923,
    "longitude": -77.6417873,
    "mainCountry": "Peru",
    "formattedAddress": "Pisco Nevado Campo Moreno, Vía Normal (PD), Yungay, Huaylas, Ancash, Perú",
    "rating": 0.0,
    "votes": 0
  },
  {
    "mountain": "Nevado Anallajsi",
    "metres": "5750",
    "metresSearchable": "5750",
    "feet": "18865",
    "range": "Andes",
    "locationAndNotes": "Bolivia",
    "latitude": -17.9292477,
    "longitude": -68.9107259,
    "mainCountry": "Bolivia",
    "formattedAddress": "Nevado Anallajsi, Municipio Calacoto, Provincia Pacajes, La Paz, Bolivia",
    "rating": 0.0,
    "votes": 0
  },